place_id,name,district,cuisine,price_level,is_tourist_area,star_rating,review_count,fqs,star_rank,fqs_rank,rank_delta,lat,lng,food_mention_rate,n_reviews,aspect_food,aspect_service,aspect_ambiance,aspect_price
ChIJoZY0BdOjpBIRBcs2kw1LzJk,Tapeo Gràcia | Barcelona,Gràcia,tapas,PRICE_LEVEL_MODERATE,False,4.5,1990,0.9536,15,7,8,41.404557,2.155454,1.0,5,0.9536,1.0,0.7262985304226867,
ChIJT53AZU2jpBIRsrg7mPCeCYs,El 37,Gràcia,tapas,,False,4.8,125,0.9536,4,4,0,41.407909,2.157682,1.0,5,0.9536,1.0,0.9186939070324439,1.0
ChIJl7hQSJSipBIRk7b0Z4WCgwE,La Pepita,Gràcia,tapas,PRICE_LEVEL_MODERATE,False,4.5,7774,0.9536,14,6,8,41.397963,2.161047,1.0,5,0.9536,1.0,0.8281300543487039,0.5
ChIJ__9Lrr2ipBIR_klc02UBq3M,"Entre Hores - Tapas, Vermut & Cocktails",Gràcia,tapas,PRICE_LEVEL_MODERATE,False,4.5,748,0.9536,10,5,5,41.403078,2.157798,0.8,5,0.9536,1.0,-0.14396749559362154,0.5
ChIJP2jB5LyipBIRMmBis7RJOkg,Gasterea,Gràcia,tapas,PRICE_LEVEL_INEXPENSIVE,False,4.5,1229,0.9536,9,3,6,41.403999,2.156627,1.0,5,0.9536,1.0,1.0,1.0
ChIJQXmT6biipBIRpPyiPV6SC80,La bodegueta de Gràcia,Gràcia,tapas,PRICE_LEVEL_INEXPENSIVE,False,4.4,869,-0.4386,17,21,-4,41.407336,2.163077,1.0,5,-0.4386,-0.2694358809884048,1.0,-1.0
ChIJFekvib2ipBIRucu0JO_5t50,Extra Bar,Gràcia,tapas,PRICE_LEVEL_MODERATE,False,4.8,627,0.843,2,13,-11,41.401338,2.158106,1.0,5,0.843,0.6891727688835165,0.49600197231488197,1.0
ChIJw_VpEb2ipBIRjwa77Zdm8ww,La Caleta de Gràcia,Gràcia,tapas,PRICE_LEVEL_INEXPENSIVE,False,4.4,1247,0.7594,19,15,4,41.402707,2.156482,1.0,5,0.7594,0.8667400202997272,0.7604795856948339,0.6886657807953303
ChIJpary9amjpBIRzT8ogqWLGoo,Dos Manos,Gràcia,tapas,,False,4.7,1234,0.874,5,11,-6,41.398468,2.161213,1.0,5,0.874,0.2493789062407259,0.21490750197711467,0.5
ChIJXVTwYqi-Z0ARrKEFWbFKMLQ,Restaurant La Panxa del Bisbe,Gràcia,tapas,PRICE_LEVEL_MODERATE,False,4.4,1779,0.6272,18,17,1,41.409488,2.157133,1.0,5,0.6272,0.9904932765364134,0.5,-0.3
ChIJeVg6OJSipBIRbn5GHSfe-r0,La Mini Pepita,Gràcia,tapas,PRICE_LEVEL_MODERATE,False,4.5,1153,0.5072,12,19,-7,41.39784,2.160879,0.8,5,0.5072,0.7677251022396802,0.7677251022396802,
ChIJ7yj5HryipBIR17Kxb2qyrD0,Taverna El Glop,Gràcia,tapas,PRICE_LEVEL_MODERATE,False,4.5,11067,0.5471,8,18,-10,41.404887,2.159544,1.0,5,0.5471,0.44532954518679657,0.8552374286229363,-0.2980429237519218
ChIJf_cJwL2ipBIRUD2HIDbJe7k,Buena Vida Bar,Gràcia,tapas,PRICE_LEVEL_MODERATE,False,4.3,1276,0.6903,20,16,4,41.402401,2.158628,1.0,5,0.6903,1.0,0.5447997538391007,-0.5288240730840695
ChIJh--JhpiipBIRVGsNc3DRCBw,Bodega Neus,Gràcia,tapas,PRICE_LEVEL_MODERATE,False,4.5,855,0.8469,13,12,1,41.4008,2.15214,1.0,5,0.8469,0.900085327544873,0.9447740498701842,0.7833184592621457
ChIJIStieq-jpBIRZHrhse1ZQ3s,El 68,Gràcia,tapas,,False,4.8,408,0.9536,3,2,1,41.402365,2.161206,1.0,5,0.9536,1.0,1.0,0.7414531950099745
ChIJ-aOyOJiipBIRagVCipaXrMw,La Pubilla,Gràcia,tapas,PRICE_LEVEL_MODERATE,False,4.5,2965,0.9536,7,1,6,41.39954,2.153658,1.0,5,0.9536,1.0,1.0,0.2382937291972387
ChIJzRYFar6ipBIRhp1MC1E9GTY,Bodega Marín,Gràcia,tapas,PRICE_LEVEL_MODERATE,False,4.5,2738,0.9536,16,8,8,41.402574,2.160996,1.0,5,0.9536,1.0,0.8720157984300873,
ChIJLUdwMbuipBIRJNqjktnrx9U,Bar Bodega Costa Brava,Gràcia,tapas,PRICE_LEVEL_INEXPENSIVE,False,4.6,441,0.7838,6,14,-8,41.407825,2.15518,1.0,5,0.7838,0.860413154444843,0.7904920491618901,
ChIJb7wt4b6ipBIRqX8hjh3dLh8,Jabato Taperia,Gràcia,tapas,PRICE_LEVEL_MODERATE,False,4.5,1502,-0.105,11,20,-9,41.404555,2.161924,0.8,5,-0.105,0.5872993425708424,0.5909096798665127,-0.7
ChIJi2ursbKjpBIRX1kCRp8uCF8,Celler 39,Gràcia,tapas,,False,4.9,277,0.8979,1,10,-9,41.403394,2.158519,1.0,5,0.8979,0.8792856387685095,0.5,0.7
ChIJ6SuOU82jpBIR40dNio15mz4,Kaguya Hime BCN,Gràcia,japanese,,False,4.9,179,0.7439,1,13,-12,41.400287,2.159366,1.0,5,0.7439,0.6928774696697694,0.5662130799201951,0.7488957238215519
ChIJy3wqx3ijpBIRpPWI5uldnDI,Fukamura,Gràcia,japanese,PRICE_LEVEL_MODERATE,False,4.7,1355,1.095,8,4,4,41.403253,2.16805,1.0,5,1.095,0.5,1.0,
ChIJUdcfncGipBIR4zE9Bp19a50,Tasca Japonesa WAKASA 3.0,Gràcia,japanese,PRICE_LEVEL_EXPENSIVE,False,4.7,485,1.072,5,5,0,41.403109,2.168985,1.0,5,1.072,0.7626734721042101,0.9941421886599242,-0.4882843773198484
ChIJGbZRPZijpBIR83Hd4qrvrnc,Kobe - Restaurante Sushi,Gràcia,japanese,,False,4.7,251,0.9789,4,8,-4,41.405481,2.161919,1.0,5,0.9789,1.0,0.21484182120907414,1.0
ChIJiw9ZnsGjpBIR7dRst6fDcX4,Nomo Gràcia,Gràcia,japanese,PRICE_LEVEL_EXPENSIVE,False,4.4,3829,0.7932,14,12,2,41.398155,2.157139,0.8,5,0.7932,0.00896783029824659,0.8,
ChIJ0ZHktJeipBIR_u3wZzY3JpQ,Kibuka | Gràcia,Gràcia,japanese,PRICE_LEVEL_MODERATE,False,4.4,3849,1.0589,12,6,6,41.39971,2.157236,1.0,5,1.0589,0.8813202955860072,0.6777395154266181,0.5
ChIJrVw8iBWjpBIRxA6sNQmyIfk,Tomodachi,Gràcia,japanese,PRICE_LEVEL_INEXPENSIVE,False,4.5,736,0.9901,11,7,4,41.405466,2.164608,1.0,5,0.9901,0.7187963925428824,1.0,
ChIJH_K9saKipBIRmMlBUBgPLxE,KITSUNE - Restaurante japonés en Barcelona. Sushi a domicilio y para llevar,Gràcia,japanese,PRICE_LEVEL_MODERATE,False,4.4,2169,0.5535,13,15,-2,41.401892,2.154406,1.0,5,0.5535,0.7638573889730592,0.5229597316321323,-0.3321127779498477
ChIJjXpkJVGjpBIRSk3JbXAGtVc,Suguru Sushi,Gràcia,japanese,PRICE_LEVEL_MODERATE,False,4.7,1144,0.9441,7,9,-2,41.403013,2.157847,1.0,5,0.9441,0.8870155060661459,,0.8
ChIJWVHoTcGipBIRJEVscpyztow,Restaurant Kioto,Gràcia,japanese,PRICE_LEVEL_MODERATE,False,4.6,1844,1.095,10,1,9,41.405598,2.168903,1.0,5,1.095,0.24702541084475968,0.7417012376190775,0.0
ChIJ9ZPOuLyipBIRmikoMRf2N7s,Kibuka | Verdi,Gràcia,japanese,PRICE_LEVEL_MODERATE,False,4.3,2047,0.4653,17,17,0,41.40487,2.155832,1.0,5,0.4653,0.35412994258365205,0.4759593935384009,0.0495433317228072
ChIJbZewFZejpBIRscUX_qag-0k,Umaimon Ramen Barcelona TAKUMI GRÀCIA,Gràcia,japanese,,False,4.7,348,0.8264,6,10,-4,41.39867,2.161429,1.0,5,0.8264,0.6534758633563539,0.6227969245647554,0.3
ChIJuVenDgCjpBIRv0EnfcxsNIA,Ramen Shin,Gràcia,japanese,,False,4.9,380,1.095,2,2,0,41.40355,2.157042,1.0,5,1.095,1.0,,
ChIJhWq9e1-jpBIRXXaTJEIksSE,Yoüme Sushi - Gràcia,Gràcia,japanese,,False,3.7,249,-0.4805,20,20,0,41.402893,2.152612,0.8,5,-0.4805,-0.6938913228192577,,0.5
ChIJfY0JNXejpBIRnElOnxIKAy0,Kibuka Izakaya,Gràcia,japanese,PRICE_LEVEL_MODERATE,False,4.2,677,-0.304,18,19,-1,41.400164,2.156918,1.0,5,-0.304,0.23039415143482608,0.4756273445611364,-0.3
ChIJlWA1W7iipBIRkP32uHQLm5E,Totoro,Gràcia,japanese,PRICE_LEVEL_INEXPENSIVE,False,4.4,2814,0.8085,16,11,5,41.409097,2.163059,1.0,5,0.8085,0.9818416471749436,0.5,-0.2
ChIJxVDK_tOjpBIRfxZId41kcfU,El Sueño Sushi Bar,Gràcia,japanese,,False,4.9,151,1.095,3,3,0,41.414597,2.158467,1.0,5,1.095,0.8312740600824786,,1.0
ChIJI-WkXUqjpBIRdDsrhiHNqfM,Shoronpo GRACIA 小籠包,Gràcia,japanese,PRICE_LEVEL_MODERATE,False,4.6,1975,0.6703,9,14,-5,41.397528,2.155596,1.0,5,0.6703,0.551159490356663,0.6516232864993282,-0.5
ChIJiwjVi6WjpBIRNagZ2K9QffU,Ichiban Ramen & Street food,Gràcia,japanese,PRICE_LEVEL_MODERATE,False,4.4,1284,0.5264,15,16,-1,41.399026,2.156602,1.0,5,0.5264,0.30172233642593416,0.7525307068128577,1.0
ChIJF6rjT7-ipBIR8XxckzuS8SY,YOMA,Gràcia,japanese,PRICE_LEVEL_INEXPENSIVE,False,3.9,1369,0.1896,19,18,1,41.405369,2.163948,1.0,5,0.1896,-0.12590280250289676,,-0.5629352452143978
ChIJH8gKMViipBIR-Naz1zh9Hbw,Güell Tapas Restaurant,La Rambla,tapas,PRICE_LEVEL_MODERATE,True,4.7,12478,0.8237,6,10,-4,41.378678,2.173736,1.0,5,0.8237,0.5431118048810529,0.7777839333690454,0.5606257225020558
ChIJzxk1cwCjpBIRUR-nQFfTHp4,Restaurante tapas 108,La Rambla,tapas,,True,4.7,799,0.8731,7,5,2,41.382581,2.172294,1.0,5,0.8731,0.8993354169215585,1.0,
ChIJb0LaPa6jpBIR8lHIpvuZiX8,Bar Boqueria,La Rambla,tapas,,True,4.8,5451,0.795,2,11,-9,41.381762,2.171073,1.0,5,0.795,1.0,1.0,-1.0
ChIJuUIe1_mipBIRvxFsLzykv9U,El Quim de la Boqueria,La Rambla,tapas,PRICE_LEVEL_MODERATE,True,4.6,2724,0.2239,11,20,-9,41.381612,2.171909,1.0,5,0.2239,0.5,0.3758173693516659,-0.37429163266073173
ChIJc2T8r_OipBIR2qaaMARTk2w,Tapa Tapa Rambla de Catalunya,La Rambla,tapas,PRICE_LEVEL_MODERATE,True,4.3,5981,0.3623,17,18,-1,41.387745,2.167721,1.0,5,0.3623,0.28045428782002674,0.1549415155687742,
ChIJ1Q6UUI2ipBIR7ZgHITkmI94,Taller de Tapas | Rambla Catalunya,La Rambla,tapas,PRICE_LEVEL_MODERATE,True,4.5,14324,0.9536,12,1,11,41.390421,2.164007,1.0,5,0.9536,1.0,1.0,
ChIJUeO9cwCjpBIRMr2-7zSR6WE,M.Restaurant Tapes,La Rambla,tapas,,True,4.6,141,0.54,10,14,-4,41.379647,2.174331,1.0,5,0.54,0.5864451795823844,1.0,-1.0
ChIJ3e3lQ0OjpBIR-FhvPgNsTLQ,El Tros de La Rambla,La Rambla,tapas,PRICE_LEVEL_MODERATE,True,4.7,7785,0.9536,3,2,1,41.391778,2.162868,1.0,5,0.9536,1.0,1.0,
ChIJbeLfg5GipBIR-e7U5e44nPA,La Bodegueta de Rambla,La Rambla,tapas,PRICE_LEVEL_MODERATE,True,4.2,4432,0.6249,18,13,5,41.393545,2.160354,1.0,5,0.6249,0.9080292302135866,0.5969567038934112,
ChIJywh0cq6jpBIR1e1rRc6l-jw,Tapes Braves,La Rambla,tapas,,True,4.0,793,0.4507,20,17,3,41.381293,2.17282,1.0,5,0.4507,0.43527629973091797,0.7999999999999999,-0.4
ChIJPZr3mUejpBIRu6yDsCfOaQE,La Flauta | Rambla de Catalunya,La Rambla,tapas,PRICE_LEVEL_MODERATE,True,4.5,4237,0.4572,14,16,-2,41.392867,2.160735,1.0,5,0.4572,0.11566526619268759,,0.35985519448790343
ChIJA-c18FeipBIRw8n-UGwjVLk,Bodega Biarritz 1881,La Rambla,tapas,PRICE_LEVEL_MODERATE,True,4.7,8995,0.7287,4,12,-8,41.379189,2.177057,1.0,5,0.7287,0.7650421341479661,0.5219354211977433,0.7770984250039134
ChIJNdRllPaipBIREsYO4j7K2SU,La Poma Restaurant,La Rambla,tapas,PRICE_LEVEL_MODERATE,True,4.1,9242,0.4838,19,15,4,41.384459,2.170515,1.0,5,0.4838,0.8524302270803783,0.5529566920666169,-0.5
ChIJ9_YhzveipBIRmgivkM5XkXU,Bo De Boquería,La Rambla,tapas,PRICE_LEVEL_MODERATE,True,4.5,2236,0.8395,13,8,5,41.381421,2.172357,1.0,5,0.8395,0.8364776474335698,0.8768641746641171,0.49953459119817906
ChIJQ5emy_eipBIRu2OYvYatD48,Ramblero de la Boqueria,La Rambla,tapas,PRICE_LEVEL_MODERATE,True,4.6,2828,0.8534,9,6,3,41.381818,2.172232,1.0,5,0.8534,0.8513385253669606,0.7503718079177185,0.3129647598971481
ChIJ7Uy86VeipBIRs8LOEbx5dEY,Ocaña,La Rambla,tapas,PRICE_LEVEL_MODERATE,True,4.6,15839,0.261,8,19,-11,41.379827,2.175705,1.0,5,0.261,0.3543048358844912,1.0,-0.5
ChIJs3-imnajpBIRMVE_VIfGPhA,La Alcoba Azul,La Rambla,tapas,,True,4.9,1192,0.9536,1,4,-3,41.393273,2.160752,1.0,5,0.9536,1.0,1.0,
ChIJJd0rpvaipBIRvW8hu31h5tg,Restaurant Núria,La Rambla,tapas,PRICE_LEVEL_MODERATE,True,4.3,7040,0.8415,16,7,9,41.385249,2.169855,0.8,5,0.8415,0.670839654675854,1.0,
ChIJDaIRz_qjpBIRN2KU00yNnuo,Mimi Tapas Restaurant,La Rambla,tapas,PRICE_LEVEL_MODERATE,True,4.7,9662,0.9536,5,3,2,41.381633,2.173453,1.0,5,0.9536,1.0,1.0,1.0
ChIJmSmV-_KipBIR1rXbKL9Yhp4,Ciutat Comtal,La Rambla,tapas,PRICE_LEVEL_MODERATE,True,4.4,22886,0.8251,15,9,6,41.388855,2.167003,1.0,5,0.8251,0.9432848504635661,0.6620381106452942,
ChIJxbWIMViipBIR7ET3I4Qg6mk,Asian Noodles & Sushi - Nou Rambla,La Rambla,japanese,PRICE_LEVEL_INEXPENSIVE,True,4.6,1054,1.0668,11,4,7,41.37861,2.173834,1.0,5,1.0668,0.966630008296481,,-0.2
ChIJsaOpKUqjpBIR62AV5ZRSCWQ,Matsuki Sushi,La Rambla,japanese,PRICE_LEVEL_MODERATE,True,4.5,2149,0.9102,16,11,5,41.382643,2.170892,1.0,5,0.9102,0.6134081903116149,0.6920053452173422,0.7871101164449844
ChIJybfY7_mipBIR9LU_PRzJdqI,Shunka,La Rambla,japanese,PRICE_LEVEL_EXPENSIVE,True,4.7,2373,0.9882,5,9,-4,41.385194,2.17515,1.0,5,0.9882,1.0,0.8120840298559285,-0.011140859490932705
ChIJS6X_geujpBIRLOsEmCtkLzw,MAMBO SUSHI,La Rambla,japanese,PRICE_LEVEL_INEXPENSIVE,True,4.6,1278,0.1969,9,19,-10,41.377157,2.175092,1.0,5,0.1969,0.7437378543195612,0.7999999999999999,-0.33487564115529633
ChIJNweNw_WipBIRc8l5CQyli7g,Carlota Akaneya,La Rambla,japanese,PRICE_LEVEL_EXPENSIVE,True,4.7,3361,0.6387,2,15,-13,41.382383,2.16861,1.0,5,0.6387,0.593308161886473,1.0,-0.028552645198757748
ChIJB_ZOSf-ipBIRNNedUI1zJE4,Kynoto Sushi Bar,La Rambla,japanese,PRICE_LEVEL_MODERATE,True,4.5,755,1.095,13,1,12,41.381582,2.179838,1.0,5,1.095,0.9805859547916626,0.5185527743396919,0.7999999999999999
ChIJk__0muqipBIRacIQTkTRgGU,Can Kenji,La Rambla,japanese,PRICE_LEVEL_MODERATE,True,4.6,2821,0.8611,10,12,-2,41.40043,2.166363,1.0,5,0.8611,0.395427230401067,0.38033554861985774,0.3422037667083898
ChIJz4yhnYajpBIRkStkOHo28qg,Sushi To-go & Push-pop | by Nori Spain,La Rambla,japanese,,True,4.4,87,0.934,18,10,8,41.380596,2.172947,1.0,5,0.934,0.7990868390325897,,
ChIJzwnCHfqipBIRBQbVUnQ5gXU,Koy Shunka,La Rambla,japanese,PRICE_LEVEL_VERY_EXPENSIVE,True,4.7,1084,0.7251,6,14,-8,41.385778,2.175429,1.0,5,0.7251,0.341848812902428,0.5703756427246284,0.28753608414150017
ChIJi4Ob6fCipBIRmLYX5b9QFtU,Machiroku,La Rambla,japanese,PRICE_LEVEL_INEXPENSIVE,True,4.5,1066,1.0486,15,6,9,41.386419,2.174484,1.0,5,1.0486,0.9236614171089307,0.5456773586679293,0.7
ChIJ6495uYujpBIRPEWqKQ3I8W0,Matsuri Sushi Bar - Restaurante Japonés,La Rambla,japanese,PRICE_LEVEL_EXPENSIVE,True,4.5,1332,1.0019,12,8,4,41.381758,2.178723,1.0,5,1.0019,1.0,0.8417014301442037,0.5
ChIJo__L4mOjpBIROVX1X7Jg8GE,Yi Sushi,La Rambla,japanese,,True,5.0,1,1.095,1,3,-2,41.379474,2.173438,1.0,1,1.095,1.0,,
ChIJnY8RfpGjpBIRkYYQGKAoyD8,Kottoya - Omakase & Sushi,La Rambla,japanese,,True,4.7,524,1.095,4,2,2,41.384055,2.177369,1.0,5,1.095,1.0,1.0,0.5
ChIJiZ6Gso2ipBIR53l5H75CrJA,Restaurante FUTAMI,La Rambla,japanese,PRICE_LEVEL_MODERATE,True,4.7,624,1.0595,3,5,-2,41.388611,2.161667,1.0,5,1.0595,1.0,0.5,1.0
ChIJCTW0OsOjpBIR2NWP7q6DDMk,Tonkotsu Ramen Dou,La Rambla,japanese,,True,4.4,582,1.0232,17,7,10,41.384789,2.169451,1.0,5,1.0232,0.9415030686972,0.5870565582019105,0.8370189722382564
ChIJfe3FCFaipBIRPzt-nB7gc14,Koku Kitchen | El Gòtic,La Rambla,japanese,PRICE_LEVEL_INEXPENSIVE,True,4.5,2980,0.7298,14,13,1,41.379914,2.17917,1.0,5,0.7298,0.8,0.551184624522489,0.8
ChIJD0TfoPeipBIRJf4idXm78Ss,Wok to Walk Boqueria,La Rambla,japanese,PRICE_LEVEL_INEXPENSIVE,True,4.3,2552,0.579,19,17,2,41.382358,2.17193,1.0,5,0.579,0.3877284157894868,0.002181606982214786,0.8
ChIJLU5um36jpBIRYpmaaq1Uk4w,Mizuki | Barcelona,La Rambla,japanese,,True,4.6,430,0.6187,7,16,-9,41.381986,2.178833,1.0,5,0.6187,0.8653142333038193,0.4638699424551613,0.5832598674136433
ChIJc6ahHliipBIRLqD-7M6CPbI,la bodega del oriente,La Rambla,japanese,PRICE_LEVEL_VERY_EXPENSIVE,True,2.4,540,-0.4238,20,20,0,41.379785,2.174188,1.0,5,-0.4238,-0.7205172587772137,-1.0,-1.0
ChIJMceUJ8ejpBIRxnLPhMnG21M,Sushi Saki,La Rambla,japanese,,True,4.6,1586,0.4453,8,18,-10,41.38131,2.185327,0.8,5,0.4453,0.2336148371152534,0.3264250005144231,-1.0
ChIJaT8s2_eipBIRQWH0ArNx7ZQ,Pasta Market,La Rambla,italian,PRICE_LEVEL_MODERATE,True,4.6,4640,0.9313,5,3,2,41.381365,2.172835,1.0,5,0.9313,1.0,1.0,1.0
ChIJ7cZtoM6jpBIRrp0cueMZlAk,Piccola Italy,La Rambla,italian,,True,4.7,565,0.8097,3,5,-2,41.381071,2.173626,1.0,5,0.8097,1.0,1.0,
ChIJVcmMIJGjpBIRWfzBPSRxK_E,Vapiano Ramblas,La Rambla,italian,PRICE_LEVEL_MODERATE,True,4.4,4152,0.2554,11,12,-1,41.378863,2.175859,1.0,5,0.2554,1.0,1.0,
ChIJQeXNq0-jpBIRr_aJ6qcT2HA,Steak house by Mamma Mirella,La Rambla,italian,,True,4.8,370,0.9313,2,2,0,41.379754,2.174238,0.8,5,0.9313,1.0,1.0,
ChIJ43IGqbujpBIR8OzWxzLm-Q8,El club de la pasta | Restaurant Italià,La Rambla,italian,,True,4.3,757,0.6024,12,9,3,41.378408,2.173451,1.0,5,0.6024,0.8734840360862505,0.6,0.8
ChIJ6aENL_aipBIRN9fMOpVeAt8,Bacaro,La Rambla,italian,PRICE_LEVEL_MODERATE,True,4.5,1714,0.4875,6,11,-5,41.381219,2.171539,1.0,5,0.4875,0.4641675124491026,0.8000000000000002,
ChIJT0u86VeipBIRRDlB5URkGfQ,Restaurant Italià Rossini,La Rambla,italian,PRICE_LEVEL_MODERATE,True,4.4,6840,0.7721,10,6,4,41.379887,2.175879,1.0,5,0.7721,0.9416195248011183,0.8206356417497437,0.3191014149073795
ChIJ3-pRKvaipBIR_zjdB9gDx-k,La Pala Boqueria,La Rambla,italian,PRICE_LEVEL_INEXPENSIVE,True,4.4,854,0.6616,8,8,0,41.380906,2.171805,1.0,5,0.6616,1.0,0.5286101881896701,0.7008206506563787
ChIJSWH2ovaipBIR5DIZL3X2djg,GUSTO PREFERITO | Pizzería Italiana Barcelona,La Rambla,italian,PRICE_LEVEL_INEXPENSIVE,True,4.4,2765,0.7707,9,7,2,41.384657,2.170003,1.0,5,0.7707,0.87857419942211,0.3583241501020895,0.6
ChIJI7JS_pujpBIRjoV5VJ8uCh8,Roxy Focacceria & Cafe’,La Rambla,italian,,True,4.5,580,0.5593,7,10,-3,41.381644,2.173102,0.6,5,0.5593,0.7040048806842842,1.0,-0.7532038132797965
ChIJhRPQvuijpBIRaE5nH9OXM24,Dolcevita Bar Sport Boqueria,La Rambla,italian,,True,4.7,962,0.9313,4,4,0,41.381926,2.170852,1.0,5,0.9313,1.0,1.0,
ChIJ-aa5zleipBIRan4E4KL0YQw,Made In Sicily,La Rambla,italian,PRICE_LEVEL_INEXPENSIVE,True,4.8,8168,0.9313,1,1,0,41.379885,2.176579,1.0,5,0.9313,1.0,0.8412792331693125,
ChIJ4fRw6PKipBIRU44hvjb4nmk,El Racó,La Rambla,italian,PRICE_LEVEL_MODERATE,True,4.2,3467,0.1581,13,13,0,41.388809,2.165882,0.8,5,0.1581,0.13885978578365352,,
ChIJ29H6d_ijpBIRCrlAwhtJVww,Can Plaça,La Rambla,catalan,PRICE_LEVEL_MODERATE,True,4.6,5721,0.8474,6,6,0,41.387988,2.167955,1.0,5,0.8474,0.8409134358018199,0.7867306414736108,1.0
ChIJkdlUWwCjpBIRYbGahwMcFgc,Tapería Catalana,La Rambla,catalan,,True,4.8,5539,0.9405,2,1,1,41.391778,2.162868,1.0,5,0.9405,1.0,0.834122418152269,0.8344507846167384
ChIJfx2I8vaipBIR2bIdtf-roQE,CentOnze,La Rambla,catalan,PRICE_LEVEL_MODERATE,True,4.2,1175,0.841,11,7,4,41.383813,2.170894,1.0,5,0.841,1.0,1.0,0.39967713234050267
ChIJzzNFzPeipBIRndvOaMG7GbY,Paella Bar Boqueria,La Rambla,catalan,PRICE_LEVEL_MODERATE,True,4.5,4263,0.9027,9,4,5,41.381416,2.171966,1.0,5,0.9027,0.9432811329212681,0.5,
ChIJkaCR-VeipBIR9m-WP1Cgnoo,Restaurant Glaciar,La Rambla,catalan,PRICE_LEVEL_MODERATE,True,4.7,9087,0.7615,4,8,-4,41.380226,2.174564,1.0,5,0.7615,0.720416075728274,0.7438933505408595,0.5
ChIJfRBegNajpBIRhbb2MWM57Ww,Singular de Rambla 92,La Rambla,catalan,,True,4.5,1035,0.3498,8,12,-4,41.393184,2.16089,0.8,5,0.3498,0.7579154285800689,0.5546021742363024,
ChIJo7tlMPaipBIR1M-1IWag3_0,Bar Clemen's Boquería,La Rambla,catalan,,True,4.8,593,0.9235,3,3,0,41.38174,2.171585,1.0,5,0.9235,0.8648982634504154,0.7610313895543194,0.5
ChIJWZ3YqPaipBIRiBjVKg3FLaU,Restaurant Racó del Núria,La Rambla,catalan,PRICE_LEVEL_MODERATE,True,4.1,280,0.3455,12,13,-1,41.385174,2.169797,1.0,5,0.3455,0.4375158238957138,0.5,-0.03484913303470081
ChIJWXpb8PeipBIR9qHIBx1PV4U,Restaurant La Boqueria,La Rambla,catalan,PRICE_LEVEL_MODERATE,True,4.6,11574,0.8969,7,5,2,41.381471,2.173993,1.0,5,0.8969,0.9476118763472602,0.7519193978934414,
ChIJ_Up6sfKipBIRGFvKW-nHLEc,Granja La Catalana,La Rambla,catalan,,True,3.4,829,0.0776,14,14,0,41.39013,2.165063,1.0,5,0.0776,0.2854160579972593,0.5,-0.23558207537000997
ChIJIzBCs_eipBIRZc-zIyruVR8,Casa Guinart,La Rambla,catalan,PRICE_LEVEL_MODERATE,True,4.0,1435,0.6829,13,10,3,41.382251,2.171936,1.0,5,0.6829,0.6250854608294443,0.6641722695123672,-0.8
ChIJC8WbGYyjpBIRbuzG5LGbL5k,Mar i Terra Rambla,La Rambla,catalan,PRICE_LEVEL_MODERATE,True,4.8,8677,0.7372,1,9,-8,41.392495,2.161928,1.0,5,0.7372,0.6499919427911084,0.8287479445725344,0.09424191976509541
ChIJrcJCl_aipBIRsV4hTVjIfbk,Julivert Meu,La Rambla,catalan,PRICE_LEVEL_MODERATE,True,4.3,2776,0.6377,10,11,-1,41.384285,2.170238,1.0,5,0.6377,0.8507369232428893,0.7682704091303872,0.8325497523656341
ChIJsUUWsFyjpBIRO4g8iNoZd7E,Assalto Restaurant & Tapas,La Rambla,catalan,,True,4.7,939,0.9405,5,2,3,41.377686,2.172676,1.0,5,0.9405,1.0,1.0,
ChIJ-77kMy2jpBIRlzmUJ0vzbkA,CARMEN Barcelona,La Rambla,seafood,,True,4.9,1149,0.3499,1,8,-7,41.382148,2.172057,1.0,5,0.3499,-0.08298582686978707,,-0.6819780369377976
ChIJLbFaN_aipBIRtZhWRrruSFg,Bar Quiosc Modern,La Rambla,seafood,,True,4.8,979,1.0146,3,1,2,41.381753,2.171428,1.0,5,1.0146,1.0,1.0,1.0
ChIJP6nFjJWjpBIRVWFgF3dpjXo,Restaurant Blau Marin La Boqueria,La Rambla,seafood,,True,3.8,569,-0.0586,9,9,0,41.38154,2.17215,1.0,5,-0.0586,-0.7630144373104509,-0.17849788585962165,-0.7361695179247555
ChIJDRdE6veipBIRw42KcA36Q0I,Mític Bar,La Rambla,seafood,,True,4.7,213,0.9775,4,4,0,41.381969,2.171962,1.0,5,0.9775,0.9348067345534936,0.7514887571442926,
ChIJjdXLztejpBIR_gy_ofGk5ac,Pez Gordo,La Rambla,seafood,,True,4.3,928,0.7591,8,6,2,41.381574,2.172219,0.6,5,0.7591,0.8381540583460346,0.8,-0.3
ChIJb2HVzleipBIRsd7SIU8GRmE,Colom Restaurant,La Rambla,seafood,PRICE_LEVEL_MODERATE,True,4.7,35043,0.6105,6,7,-1,41.379853,2.1765,1.0,5,0.6105,0.7420183312023344,0.26536348551272654,0.6417432818989592
ChIJP-JQafaipBIRf2cJ21lrPnE,Restaurant Miño,La Rambla,seafood,PRICE_LEVEL_MODERATE,True,4.7,3227,1.0146,5,2,3,41.382399,2.170749,1.0,5,1.0146,1.0,0.8179707193096657,
ChIJk8VY8P2ipBIR21eL6en-5i4,Puertecillo Born,La Rambla,seafood,PRICE_LEVEL_MODERATE,True,4.5,5798,1.0146,7,3,4,41.386335,2.184046,1.0,5,1.0146,0.7293100191044074,,0.5
ChIJEU7Ei1eipBIRcc0cal8bbWc,Louro Restaurant,La Rambla,seafood,PRICE_LEVEL_MODERATE,True,4.8,3233,0.8144,2,5,-3,41.379192,2.174701,1.0,5,0.8144,0.871031013839817,0.6662912765438216,1.0
ChIJiY5kDjGjpBIRKFFwTL2lLHk,Saravanaa Bhavan Barcelona,La Rambla,vegetarian,,True,4.6,857,0.9014,6,3,3,41.383888,2.171601,1.0,5,0.9014,0.5459388259921322,1.0,0.03597986588488309
ChIJ9QrYHM6jpBIRrv7ETBOlitw,Hummus and Company,La Rambla,vegetarian,,True,4.3,1737,0.8459,11,6,5,41.380966,2.173106,1.0,5,0.8459,1.0,0.8180333470845922,
ChIJZ1JiOdmjpBIRS7L0A7iU0fA,Bites&Vibes,La Rambla,vegetarian,,True,4.9,118,0.7963,1,8,-7,41.380721,2.17393,1.0,5,0.7963,0.8747708252787914,0.7507306996449803,
ChIJq2tyFQCjpBIRTtPq34aADrQ,Honest Greens Les Rambles,La Rambla,vegetarian,PRICE_LEVEL_MODERATE,True,4.6,2672,0.5536,7,12,-5,41.383464,2.171187,1.0,5,0.5536,0.7235478858215324,0.7607283959230203,0.39990377158410156
ChIJH1MVbvSipBIRl_BB017gBB4,Teresa Carles,La Rambla,vegetarian,PRICE_LEVEL_MODERATE,True,4.4,7157,0.8695,10,5,5,41.38514,2.168027,1.0,5,0.8695,0.8886850124068395,0.7610049205336669,0.5
ChIJnx1hjdyjpBIR4nH2Pz1ry10,Honest Greens Plaça Catalunya,La Rambla,vegetarian,PRICE_LEVEL_MODERATE,True,4.5,11980,0.7962,9,9,0,41.387687,2.168047,1.0,5,0.7962,0.054124258907587826,0.5,
ChIJofOM7vaipBIRSND_KLe0ga8,Moka,La Rambla,vegetarian,PRICE_LEVEL_MODERATE,True,3.9,2992,0.4762,13,13,0,41.384128,2.171311,1.0,5,0.4762,0.78196941195005,0.747234415446451,-0.5
ChIJB1mfgNujpBIRFmKv849ZqM4,The Vegan Corner,La Rambla,vegetarian,PRICE_LEVEL_INEXPENSIVE,True,4.7,984,0.7638,3,11,-8,41.381411,2.178448,1.0,5,0.7638,-0.5,0.6510325268515801,
ChIJGzDeULyjpBIRAOPXmO-Lpww,The Wolves Cave,La Rambla,vegetarian,,True,4.6,667,0.9455,5,2,3,41.381145,2.173616,0.2,5,0.9455,1.0,1.0,1.0
ChIJ5RoysvijpBIRAA8yasO-r1Y,VELADA - Tapas Plant-Based y Cócteles en Barcelona,La Rambla,vegetarian,PRICE_LEVEL_MODERATE,True,4.7,1287,0.8073,2,7,-5,41.381289,2.175257,1.0,5,0.8073,0.898793460653771,0.601206539346229,
ChIJ296VR_mipBIRNi8BkvjlHA4,Vegan Cat Bar,La Rambla,vegetarian,PRICE_LEVEL_MODERATE,True,4.6,2035,0.7882,4,10,-6,41.381043,2.180881,0.8,5,0.7882,0.9253181266115104,0.8463898501464605,0.5
ChIJefD4APiipBIRgyI_ff4Qhxc,Maoz Falafel & Chips,La Rambla,vegetarian,PRICE_LEVEL_INEXPENSIVE,True,4.5,2435,0.8863,8,4,4,41.380859,2.174678,1.0,5,0.8863,0.7320919700566153,0.1,0.7591745600925809
ChIJAa9QMSKjpBIRP0l30R0d1cs,Mosty Restaurant & Lounge,La Rambla,vegetarian,,True,4.3,3623,0.9455,12,1,11,41.382171,2.172694,1.0,5,0.9455,1.0,0.9241794808149737,
ChIJHWj8M1iipBIRHhnQXWdmZqc,National Burger,La Rambla,burger,PRICE_LEVEL_MODERATE,True,4.6,3451,1.1419,4,2,2,41.378453,2.173503,1.0,5,1.1419,1.0,1.0,
ChIJf0h_pd-jpBIRa144A-4jbRo,Maash Burger | Ramblas,La Rambla,burger,,True,4.6,34,1.1419,7,5,2,41.379209,2.173331,0.6,5,1.1419,1.0,,0.5
ChIJ7cwtDPqipBIRGHdwBWCk-5E,La Central Burgers,La Rambla,burger,PRICE_LEVEL_MODERATE,True,4.7,13954,0.8996,3,7,-4,41.386691,2.174944,1.0,5,0.8996,1.0,1.0,1.0
ChIJ0bMVInujpBIR8mVXQ6cYUZo,The Burger Road | Raval,La Rambla,burger,,True,4.4,1326,0.2063,9,14,-5,41.381787,2.170644,1.0,5,0.2063,0.05736033067352905,0.3406326719857064,-0.5
ChIJxd3H3KmjpBIRUVnKSb-3ReE,WILD BEEF / DAILY BURGER,La Rambla,burger,,True,4.8,257,0.6622,1,10,-9,41.378059,2.169541,1.0,5,0.6622,1.0,,0.09589780428222684
ChIJiQ_bqPaipBIRcaj-bJ1Ow2s,Burger King,La Rambla,burger,PRICE_LEVEL_INEXPENSIVE,True,3.8,5902,-0.3705,13,15,-2,41.385291,2.16984,0.8,5,-0.3705,-0.9523239685242761,-0.8026298275522016,
ChIJKw-ZUB6jpBIRikmomyB73sI,The Burger Maker,La Rambla,burger,PRICE_LEVEL_INEXPENSIVE,True,4.6,5251,1.1419,5,3,2,41.38306,2.180239,1.0,5,1.1419,1.0,1.0,
ChIJeVhMulujpBIR5SPUKz0FvAo,Five Guys Burgers and Fries Plaza Cataluña,La Rambla,burger,PRICE_LEVEL_MODERATE,True,4.1,4267,0.8666,10,8,2,41.385929,2.168993,1.0,5,0.8666,0.7103187130843088,1.0,-0.5
ChIJ_8-pOMejpBIR4Ulbld0xAJ4,Saucy Buns - Saucy Smashed Burgers by Taster,La Rambla,burger,,True,2.5,4,-0.7147,15,16,-1,41.389046,2.166707,0.75,4,-0.7147,,,-1.0
ChIJXZYicy2jpBIRueTmiOJLMXE,Restaurante Nook,La Rambla,burger,,True,4.6,112,0.8621,6,9,-3,41.380508,2.175287,1.0,5,0.8621,0.8738474384833765,0.8360919304545417,1.0
ChIJEbp9DlejpBIR6G17tkADub4,Burger house halal,La Rambla,burger,PRICE_LEVEL_MODERATE,True,3.8,517,0.3308,12,13,-1,41.378001,2.170668,1.0,5,0.3308,0.574487016408643,-0.1763066864492101,0.5
ChIJzW86uPejpBIRlTG2CUq06e0,Rad Burger Café - Gotic,La Rambla,burger,,True,4.8,663,0.9192,2,6,-4,41.379381,2.175815,1.0,5,0.9192,0.6367057627081283,0.5,0.8
ChIJkZSOZ4qjpBIRm6W6V31bPZk,CENTRAL RAMBLA,La Rambla,burger,,True,3.0,898,0.6323,14,11,3,41.378229,2.176146,1.0,5,0.6323,0.3592905516850887,1.0,-0.6703035835178256
ChIJZyKuyS6jpBIRjaMzezZHL7o,BE-ONE RAMBLA,La Rambla,burger,,True,2.2,33,0.4254,16,12,4,41.381116,2.173611,0.4,5,0.4254,0.7450669563386804,,-1.0
ChIJGcTse_aipBIR4FIuC5FxHd0,Chivuo's - Raval,La Rambla,burger,PRICE_LEVEL_INEXPENSIVE,True,4.5,2520,1.1419,8,1,7,41.382947,2.169966,1.0,5,1.1419,0.8868228353800021,0.40771960723312345,1.0
ChIJWcxU08-jpBIRYrImocbSySc,G LA DALLE - LA RAMBLA Barcelona,La Rambla,burger,,True,4.0,110,1.1419,11,4,7,41.384864,2.169719,1.0,5,1.1419,1.0,1.0,1.0
ChIJQ2SoEaCjpBIRjSut5o0L1no,Suki Ramen Sapporo,La Rambla,ramen,,True,4.7,1786,0.859,3,6,-3,41.386676,2.174948,1.0,5,0.859,0.5,0.7414641045766203,0.5
ChIJc-hskmKjpBIRxKaT9C-sgyQ,Ramen Master,La Rambla,ramen,PRICE_LEVEL_INEXPENSIVE,True,4.9,602,0.9172,1,5,-4,41.396257,2.174554,1.0,5,0.9172,0.827560726267134,1.0,
ChIJCci2oY2ipBIR8odvxCKv1ec,Umaimon Ramen,La Rambla,ramen,PRICE_LEVEL_MODERATE,True,4.5,4526,0.4096,8,14,-6,41.389631,2.161937,1.0,5,0.4096,0.2208170214378165,-0.2,0.15391311837627192
ChIJ8RUDrQ2jpBIRKlBlWQj7E4M,Ramen Hui Barcelona,La Rambla,ramen,,True,4.7,1095,0.7543,2,8,-6,41.405681,2.174821,1.0,5,0.7543,0.929199614538716,0.569759447817629,-0.39999999999999997
ChIJL0PofSajpBIRVRj52q7BF6k,RAMEN DOU,La Rambla,ramen,PRICE_LEVEL_MODERATE,True,4.3,983,0.6417,14,11,3,41.386557,2.173206,1.0,5,0.6417,1.0,1.0,0.04460937688055161
ChIJuZKrdPCipBIRfAVSe1uQy-I,Oishii,La Rambla,ramen,PRICE_LEVEL_MODERATE,True,4.4,4191,1.0526,13,2,11,41.389326,2.174183,1.0,5,1.0526,1.0,1.0,1.0
ChIJvV8hbWmjpBIRS13DoPAvDco,Umaimon Tonkotsu Ramen,La Rambla,ramen,PRICE_LEVEL_MODERATE,True,4.5,3109,0.7124,12,9,3,41.394069,2.17487,1.0,5,0.7124,0.6094892500900406,0.8487884422262678,
ChIJ-fDAXmujpBIRk-Jfn5GLWUc,Hokkaido Ramen,La Rambla,ramen,,True,4.6,542,0.3448,5,15,-10,41.405662,2.17857,1.0,5,0.3448,-0.03401741400097065,0.8,-0.8000000000000002
ChIJW33aGMWjpBIRS4i9jUmbYKk,IKOYA Izakaya,La Rambla,ramen,,True,4.7,4443,1.0526,4,1,3,41.386581,2.17775,1.0,5,1.0526,1.0,1.0,
ChIJtwQDyuqipBIRndKIJi3mui8,Ramen-ya Hiro - Restaurant Japonés,La Rambla,ramen,PRICE_LEVEL_INEXPENSIVE,True,4.5,5978,0.4738,11,12,-1,41.399704,2.165074,1.0,5,0.4738,-0.34505206576701913,-0.2,
ChIJiZcBBXGjpBIRy92jvdFDFb0,Umaimon Sapporo Ramen,La Rambla,ramen,PRICE_LEVEL_MODERATE,True,4.5,2301,0.6789,10,10,0,41.385055,2.177469,1.0,5,0.6789,0.8961003885925838,0.750297462693384,0.8
ChIJh6kchfOjpBIRt6fATVPQBkw,Umaimon Ramen & Yakisoba TAKUMI ARIBAU,La Rambla,ramen,PRICE_LEVEL_MODERATE,True,4.5,1532,0.9243,9,4,5,41.386292,2.162316,1.0,5,0.9243,0.9245024179104308,0.5,0.8
ChIJ6eLgUvmipBIRXtm29Gzx9s8,Grasshopper Ramen Bar,La Rambla,ramen,PRICE_LEVEL_INEXPENSIVE,True,4.5,2578,0.4403,7,13,-6,41.385106,2.179313,1.0,5,0.4403,0.8,-0.02879852029092673,0.5
ChIJCS5IhfejpBIRsJU5Jrz1dxg,Maji Beef Noodles All Day 马记兰州牛肉面,La Rambla,ramen,PRICE_LEVEL_INEXPENSIVE,True,4.6,775,0.9649,6,3,3,41.389577,2.176976,1.0,5,0.9649,1.0,1.0,0.8509664028034302
ChIJc9jnVyKjpBIRWtaBdKw88vo,Ramen Shifu,La Rambla,ramen,PRICE_LEVEL_INEXPENSIVE,True,4.2,1262,0.2269,16,16,0,41.388006,2.172193,1.0,5,0.2269,-0.5261876472884427,0.19286899216074677,
ChIJNfjhNImjpBIRMGd6HFrVqiQ,Ramen House,La Rambla,ramen,PRICE_LEVEL_INEXPENSIVE,True,4.3,897,0.7837,15,7,8,41.401014,2.201178,1.0,5,0.7837,0.9023330040851624,1.0,0.5
ChIJh4xUSACjpBIRRvoiHZmzzQE,Ferretti,La Rambla,brunch,,True,4.7,673,0.8249,5,6,-1,41.390092,2.165171,1.0,5,0.8249,1.0,0.7691506450116741,
ChIJuQOJSRijpBIRyITIgMsX3eY,Brunch & Cake,La Rambla,brunch,PRICE_LEVEL_MODERATE,True,4.7,4325,0.5171,7,10,-3,41.380414,2.174764,1.0,5,0.5171,1.0,0.3748714598728533,
ChIJN_NztFGjpBIR5L2YBnofGoM,Berry Brunch Barcelona,La Rambla,brunch,PRICE_LEVEL_MODERATE,True,4.8,6563,0.9394,3,2,1,41.393948,2.169182,0.8,5,0.9394,0.6809525163166711,0.8711639784196689,-0.5
ChIJOcNaRP-ipBIR68_GxT-iv38,The Benedict Barcelona,La Rambla,brunch,PRICE_LEVEL_MODERATE,True,4.6,4535,0.9394,8,3,5,41.381433,2.180227,1.0,5,0.9394,1.0,0.8638018814285564,
ChIJZf-OTYyipBIR-6LQH2LDW3A,Brunch & Cake,La Rambla,brunch,PRICE_LEVEL_MODERATE,True,4.4,9657,0.6325,9,8,1,41.38828,2.161504,0.8,5,0.6325,1.0,1.0,-1.0
ChIJDyz3bk6jpBIRUXi_fMWPcG8,The Toast Maker,La Rambla,brunch,,True,4.3,829,0.8504,10,5,5,41.381631,2.170265,1.0,5,0.8504,1.0,1.0,0.5
ChIJD4VQCuejpBIRGwCFp1O3yc8,A Little Bud,La Rambla,brunch,,True,5.0,148,0.9394,1,1,0,41.380928,2.177033,1.0,5,0.9394,1.0,1.0,
ChIJ-4CUtB6jpBIR05CXXCrMlmI,Noor Brunch | Specialty Coffee & Matcha,La Rambla,brunch,,True,4.7,247,0.5212,4,9,-5,41.382966,2.173908,0.8,5,0.5212,0.7212220660604037,0.627194533777082,-1.0
ChIJrYQNDgejpBIRay4BITEgCsE,Faire. Brunch & Drinks,La Rambla,brunch,PRICE_LEVEL_MODERATE,True,4.7,3014,0.7237,6,7,-1,41.39517,2.170288,1.0,5,0.7237,1.0,1.0,-0.5
ChIJHWw6dh-jpBIR3Q0-8VdPnvo,MIAM SAGRADA FAMILIA,La Rambla,brunch,PRICE_LEVEL_MODERATE,True,4.8,5381,0.8556,2,4,-2,41.402114,2.175665,1.0,5,0.8556,1.0,0.8636487343528899,1.0
ChIJaxTwagCjpBIR0ToSjGUeZgI,Restaurante Tapas & paella barceloneta,Barceloneta,tapas,,True,4.9,85,0.9536,1,3,-2,41.380904,2.187318,1.0,5,0.9536,1.0,1.0,
ChIJxfFDrUijpBIRsgKa2qCaCAs,La Taberna de La Barceloneta,Barceloneta,tapas,,True,4.8,438,0.9536,4,4,0,41.380321,2.190081,1.0,5,0.9536,1.0,1.0,
ChIJ8ZNBoACjpBIRuNK8jCF1Ph0,La Fresca,Barceloneta,tapas,PRICE_LEVEL_INEXPENSIVE,True,4.5,1826,0.9374,11,5,6,41.38055,2.188108,1.0,5,0.9374,1.0,0.9281928976845836,
ChIJkV5ldKqjpBIRnUcQI7AHDVQ,Bodega La Peninsular,Barceloneta,tapas,PRICE_LEVEL_MODERATE,True,4.7,2090,0.9089,8,6,2,41.380233,2.187799,1.0,5,0.9089,0.9645275041023764,0.8160890948219253,-0.2
ChIJO269dACjpBIRwUsjbcyVJ5M,Restaurante Tapas y mar,Barceloneta,tapas,,True,4.8,3299,0.6233,3,16,-13,41.376778,2.190333,1.0,5,0.6233,0.5165269676737707,0.4712884201876573,-0.548804044395575
ChIJnchcggCjpBIRLhpYBsO32Ic,MESON BARCELONETA,Barceloneta,tapas,PRICE_LEVEL_MODERATE,True,4.5,2531,0.6958,14,13,1,41.380611,2.187397,1.0,5,0.6958,1.0,0.8003789518488295,
ChIJeW2d8wCjpBIRVzGltt5DgTc,Cerveseria Vaso de Oro,Barceloneta,tapas,PRICE_LEVEL_MODERATE,True,4.5,7430,0.8421,13,10,3,41.38185,2.187316,1.0,5,0.8421,0.6319478668941584,0.8424521264772672,0.7999999999999999
ChIJB00I6rijpBIRU4DhREeZKzI,Estraperlo Barceloneta,Barceloneta,tapas,PRICE_LEVEL_INEXPENSIVE,True,4.5,1558,0.7753,12,11,1,41.379192,2.190111,1.0,5,0.7753,0.9649079762715252,0.5,0.16809537942797317
ChIJvdFY9amjpBIRVecxFX2krK0,La Cova Fumada,Barceloneta,tapas,PRICE_LEVEL_MODERATE,True,4.6,5633,0.6341,10,15,-5,41.379303,2.189218,1.0,5,0.6341,0.4046209837436096,0.30764769473529024,-0.04582864633304823
ChIJnXSyhymjpBIRz41s9XT0iE4,Bar Tapas Barceloneta,Barceloneta,tapas,,True,4.4,601,0.9063,16,7,9,41.401826,2.205857,0.8,5,0.9063,0.9202935292141811,0.7904781032196496,
ChIJNb7a7QCjpBIRdb_cmNnxiNE,Bar Bitàcora,Barceloneta,tapas,PRICE_LEVEL_INEXPENSIVE,True,4.4,2253,0.7422,15,12,3,41.382095,2.187659,1.0,5,0.7422,0.5699016667006833,0.342834015333861,
ChIJAR8SngCjpBIRw77ZED15xAY,La Bombeta,Barceloneta,tapas,PRICE_LEVEL_MODERATE,True,4.3,7275,0.4519,17,17,0,41.380578,2.187707,1.0,5,0.4519,0.3668537012080874,0.2878464908594924,
ChIJH0GgiwCjpBIRL20UelNQC8k,SMYRNA by Cem | Tapes Arrossos Còctels Bar,Barceloneta,tapas,PRICE_LEVEL_MODERATE,True,4.7,8071,0.4199,6,19,-13,41.381597,2.187006,1.0,5,0.4199,0.46132429475990266,,-0.5
ChIJz2k7sCKjpBIRsI9EP5QvjH4,LAMAI THAI TAPAS,Barceloneta,tapas,,True,4.8,969,0.6607,5,14,-9,41.379059,2.189049,1.0,5,0.6607,0.7582498418763164,0.4970707638499537,0.5
ChIJDRVBAAajpBIRsc2fntvrX_w,EL FORAT | UN BAR POR PUHREZ,Barceloneta,tapas,,True,4.8,183,0.9536,2,1,1,41.380254,2.191015,1.0,5,0.9536,1.0,0.5,-0.5
ChIJXylyFKmjpBIRbLFwOD-qYa0,Tapa Tapa Xiringuito,Barceloneta,tapas,PRICE_LEVEL_MODERATE,True,4.3,5357,0.9536,19,2,17,41.376969,2.190656,1.0,5,0.9536,1.0,0.6827085636908852,0.7692516104326376
ChIJNY4SvwCjpBIRixgP2NZo70E,Bar Jai-Ca,Barceloneta,tapas,PRICE_LEVEL_INEXPENSIVE,True,4.3,8435,0.8715,18,8,10,41.381569,2.187754,1.0,5,0.8715,0.6717655308400045,0.4015296297112819,1.0
ChIJtaMNtq6jpBIRqdKUZ7aT5-w,La Deliciosa,Barceloneta,tapas,PRICE_LEVEL_MODERATE,True,4.2,2534,0.3791,20,20,0,41.373696,2.189931,0.6,5,0.3791,1.0,0.769092056208636,-0.07446626363190202
ChIJCeUDXqmjpBIR1s1xmRJB0rY,Petit Bar,Barceloneta,tapas,PRICE_LEVEL_INEXPENSIVE,True,4.6,929,0.8697,9,9,0,41.376609,2.189666,0.6,5,0.8697,1.0,0.6092033747226604,
ChIJd_R5R86jpBIR_IDBxuC1Pt8,Restaurant Cal Mariner Seafood and Tapas - Barceloneta,Barceloneta,tapas,,True,4.7,3282,0.4355,7,18,-11,41.37916,2.189831,1.0,5,0.4355,0.849961203445209,0.7,0.8505647730159227
ChIJr2wytgCjpBIRsnlZwvp2wMA,Katsuo Sushi & Ramen,Barceloneta,japanese,PRICE_LEVEL_MODERATE,True,4.6,903,0.7395,7,11,-4,41.381662,2.188797,1.0,5,0.7395,0.8974781142303575,1.0,0.8599725192422709
ChIJ-RQacSGjpBIRbutjV9WxxrY,Sushiko | Barceloneta,Barceloneta,japanese,PRICE_LEVEL_MODERATE,True,3.8,867,0.7574,12,9,3,41.375857,2.18927,1.0,5,0.7574,0.6624266544233989,1.0,0.18149929757974398
ChIJaZFv6wCjpBIRad64KhRrihc,Shôko Restaurante Barcelona,Barceloneta,japanese,,True,4.9,680,1.095,1,3,-2,41.385518,2.19699,1.0,5,1.095,1.0,1.0,
ChIJ37Y3HQ-jpBIRhNVDylhB1XY,Restaurant Ají,Barceloneta,japanese,PRICE_LEVEL_EXPENSIVE,True,4.5,682,0.802,8,7,1,41.386307,2.197009,1.0,5,0.802,0.5890146139693694,0.5574630629782673,1.0
ChIJYS86CQKjpBIRxs-ozetbBCg,Ikibana | Born,Barceloneta,japanese,PRICE_LEVEL_EXPENSIVE,True,4.5,3447,0.9742,10,4,6,41.386383,2.184424,1.0,5,0.9742,0.7963297968789202,0.6919418116971325,-0.2
ChIJeUJ8DgAfA4wR-n84qwZgzBI,Yabuuchi Sushi Barceloneta,Barceloneta,japanese,,True,4.8,72,0.802,5,8,-3,18.435447,-66.542834,1.0,5,0.802,0.2916912233770887,0.7633543087727713,
ChIJO1884wGjpBIREDQjmsgQe_w,Koku Kitchen | El Born,Barceloneta,japanese,PRICE_LEVEL_MODERATE,True,4.5,3327,0.7428,9,10,-1,41.384881,2.184336,1.0,5,0.7428,0.43157570216956365,0.7840741694729038,-0.8
ChIJRXXCjMOjpBIRX0xuoVB-EdU,Arko Sushi Restaurant,Barceloneta,japanese,,True,4.8,6294,1.095,3,2,1,41.390938,2.157834,1.0,5,1.095,1.0,0.8251864821404747,0.5
ChIJXRaj-KujpBIR90c4NFgVSGg,Makamaka | Barcelona,Barceloneta,japanese,PRICE_LEVEL_MODERATE,True,4.6,11113,0.9494,6,5,1,41.375749,2.188619,1.0,5,0.9494,0.9473691399733687,0.8815642175276728,0.32235816524183486
ChIJbZRE0QijpBIRhTBMlgGI3PY,CDLC Barcelona (Carpe Diem),Barceloneta,japanese,PRICE_LEVEL_EXPENSIVE,True,4.1,4710,0.3762,11,12,-1,41.384974,2.196268,0.6,5,0.3762,0.7531754433477941,0.4706475947815932,-0.6999999999999998
ChIJIaQo-6KjpBIRpKdZTD4Dock,Poke Moana | Barcelona,Barceloneta,japanese,,True,4.8,227,1.095,2,1,1,41.377165,2.190404,1.0,5,1.095,1.0,1.0,0.7822691291748175
ChIJd6y-v8-jpBIRUCpzg-RuBYk,Monster Sushi,Barceloneta,japanese,PRICE_LEVEL_MODERATE,True,4.8,3057,0.8479,4,6,-2,41.394906,2.171301,1.0,5,0.8479,1.0,1.0,
ChIJO5ok4Z-jpBIRTp57BEMoPRs,Restaurante Terrazza Ravello,Barceloneta,italian,PRICE_LEVEL_MODERATE,True,4.8,8104,0.738,8,15,-7,41.381126,2.185055,1.0,5,0.738,1.0,1.0,
ChIJpzCPg8-jpBIRo4mIpkTjTgA,Velissima | Restaurante Italiano en Barcelona,Barceloneta,italian,PRICE_LEVEL_EXPENSIVE,True,4.3,2824,0.7066,17,16,1,41.367093,2.189066,0.8,5,0.7066,0.38924779070005927,0.15940914096862102,0.8
ChIJcaby14WjpBIRGQS5jW0Nd8g,Pizzería 100% napoletana Pulcinella Pasta e Pizza,Barceloneta,italian,,True,4.9,1101,0.9313,4,1,3,41.380237,2.188802,1.0,5,0.9313,1.0,0.5,0.8
ChIJlSQsvQyjpBIRNGC-97ylIcA,BRUTTA,Barceloneta,italian,,True,5.0,521,0.9313,2,2,0,41.378683,2.189664,1.0,5,0.9313,1.0,1.0,
ChIJIa0KNtajpBIRKNcUVTXhsX4,Dante,Barceloneta,italian,,True,4.8,1392,0.8681,7,9,-2,41.375862,2.188026,1.0,5,0.8681,0.8640028639722019,0.7743308247416655,1.0
ChIJDwBMQwejpBIR-BZczVnBBuE,ACQUA&FARINA,Barceloneta,italian,PRICE_LEVEL_INEXPENSIVE,True,4.5,1905,0.6171,14,17,-3,41.381023,2.190152,1.0,5,0.6171,0.704542994571281,0.43233999206818025,0.14524438530284975
ChIJ8Q9C8QGjpBIROPBfeiuUhEI,Buon Appetito,Barceloneta,italian,PRICE_LEVEL_MODERATE,True,4.8,17644,0.8928,5,6,-1,41.385002,2.185041,1.0,5,0.8928,0.9037285794839868,0.6631247634705376,
ChIJVWQCX22jpBIRl28N0RBug-g,Er Bucio,Barceloneta,italian,,True,5.0,94,0.8856,1,8,-7,41.381121,2.189732,1.0,5,0.8856,1.0,1.0,1.0
ChIJqUnsoGujpBIR32xqZqHONNs,pizzeria napoletana 081,Barceloneta,italian,,True,4.4,751,0.6143,16,18,-2,41.380193,2.190329,1.0,5,0.6143,-0.5002137871338255,,0.3809682937489012
ChIJCf3coACjpBIRfWofulA2s_0,KITCHEN PIZZERIA BARCELONETA,Barceloneta,italian,PRICE_LEVEL_INEXPENSIVE,True,4.9,3832,0.8481,3,11,-8,41.380588,2.188255,1.0,5,0.8481,1.0,-0.5,0.5
ChIJEV-i-KujpBIRMspZBszsZUQ,La Tagliatella | Barceloneta,Barceloneta,italian,PRICE_LEVEL_MODERATE,True,3.8,1386,0.9034,19,3,16,41.374943,2.188541,0.6,5,0.9034,0.9191969139201603,0.5,-1.0
ChIJY4psLACjpBIRsKNo-ee_bo8,Focacceria Balmesina,Barceloneta,italian,,True,4.8,309,0.867,9,10,-1,41.380758,2.188578,1.0,5,0.867,0.32122826992028064,,0.30439963670544395
ChIJ1zU1wxmjpBIR5ESmYH_7tcs,Carmina,Barceloneta,italian,PRICE_LEVEL_MODERATE,True,4.6,7092,0.8349,11,12,-1,41.383779,2.180054,1.0,5,0.8349,0.5223820787742239,0.7138863386702393,
ChIJK4eG1lWipBIRlvmDJjtrlI0,Cecconi's Barcelona,Barceloneta,italian,PRICE_LEVEL_EXPENSIVE,True,4.4,1984,0.3948,15,20,-5,41.378489,2.179375,1.0,5,0.3948,0.7473901867680864,0.8742728930354712,
ChIJ0Ra7camjpBIRpDX0epa6zbw,NAP Mar,Barceloneta,italian,PRICE_LEVEL_INEXPENSIVE,True,4.5,4125,0.7428,12,14,-2,41.377476,2.190023,1.0,5,0.7428,0.5941285788169443,0.8685968467819659,0.6047741892681134
ChIJH90Lrv6jpBIRDkM0EdzCbS0,Eatmosfera,Barceloneta,italian,,True,4.8,1446,0.9029,6,4,2,41.391943,2.187963,1.0,5,0.9029,0.9645740260687503,0.7791908038604193,
ChIJpeq4WfajpBIRYsOLbFTWW50,MOLO 39 Palau De Mar,Barceloneta,italian,PRICE_LEVEL_MODERATE,True,3.7,1402,0.533,20,19,1,41.380543,2.186084,1.0,5,0.533,0.6017161795625532,0.15834106963825717,-0.038234920441552696
ChIJ3VsNNY-jpBIRI0UcmJg-U0A,Bronzo Restaurant | Born,Barceloneta,italian,PRICE_LEVEL_MODERATE,True,4.5,1505,0.8963,13,5,8,41.384202,2.184002,1.0,5,0.8963,1.0,0.19097314319596373,
ChIJqWiau_2ipBIRK6OJz_dItU4,Murivecchi,Barceloneta,italian,PRICE_LEVEL_MODERATE,True,4.3,7306,0.8869,18,7,11,41.387343,2.182696,1.0,5,0.8869,1.0,,
ChIJUZ32vbCjpBIRQBert9on6oA,Entrepaneria Compá | Barceloneta,Barceloneta,italian,PRICE_LEVEL_INEXPENSIVE,True,4.7,1991,0.7822,10,13,-3,41.379618,2.191295,1.0,5,0.7822,0.6372638325609029,0.6396581757416641,0.5963481515063462
ChIJ_3GGzg6jpBIRbf92pkxsCr0,Ca La Nuri Restaurant,Barceloneta,catalan,PRICE_LEVEL_MODERATE,True,4.3,11768,0.7253,11,8,3,41.38296,2.194956,1.0,5,0.7253,0.41169713412181885,0.6885063171911195,0.3
ChIJ6_dLhqujpBIRMs68zrFMqSc,Barceloneta restaurant,Barceloneta,catalan,PRICE_LEVEL_EXPENSIVE,True,4.4,9086,0.4706,6,13,-7,41.375868,2.187582,1.0,5,0.4706,0.5119243307642107,0.5895199571513791,-0.5598536243784268
ChIJSb6nrgCjpBIRzG2XfthHOgg,Can Ramonet,Barceloneta,catalan,PRICE_LEVEL_MODERATE,True,4.4,5620,0.8991,7,4,3,41.380868,2.189101,1.0,5,0.8991,0.9147092224241433,0.8947460717915563,
ChIJw6rRkgCjpBIRMO_gEqnHTaE,El Nou Ramonet,Barceloneta,catalan,PRICE_LEVEL_MODERATE,True,4.6,4808,0.6955,3,9,-6,41.381768,2.187624,1.0,5,0.6955,1.0,0.9129131749832178,-0.5
ChIJOx8QPKqjpBIR1u8Z5hq1qcg,Can Solé,Barceloneta,catalan,PRICE_LEVEL_EXPENSIVE,True,4.3,2017,0.8157,10,6,4,41.378877,2.188398,1.0,5,0.8157,0.8933447803711458,0.8,
ChIJT4mJObKjpBIR7d5fykwYRgY,Maná 75,Barceloneta,catalan,PRICE_LEVEL_MODERATE,True,4.4,8352,0.7891,8,7,1,41.368862,2.188269,0.8,5,0.7891,0.48493711474358303,0.7513541829802995,
ChIJ_ezY-KejpBIRbWjSuJVSXu8,El Rincón del Mar Cocina Mediterránea - Barceloneta,Barceloneta,catalan,,True,4.6,1228,0.4794,2,12,-10,41.378895,2.190016,1.0,5,0.4794,0.5664341586517257,-0.2,
ChIJ2S5njKmjpBIRwbO1A46pNkk,Taverna Ibèria Barceloneta,Barceloneta,catalan,PRICE_LEVEL_INEXPENSIVE,True,4.5,3474,0.6821,4,10,-6,41.378983,2.189582,0.8,5,0.6821,1.0,0.6689536081726591,0.5
ChIJpSE05QejpBIRgnip8SFiprc,Sal Mar,Barceloneta,catalan,PRICE_LEVEL_MODERATE,True,4.5,7538,0.9405,5,1,4,41.381008,2.193636,1.0,5,0.9405,1.0,0.9136443025028208,0.5
ChIJw6ZWCamjpBIRC6VNYRUUlB0,Can Majó,Barceloneta,catalan,PRICE_LEVEL_MODERATE,True,4.3,3091,0.9405,13,2,11,41.377674,2.190728,1.0,5,0.9405,1.0,0.8264569585214044,0.5
ChIJXyrTYqmjpBIRWpT9xLwAhUg,Restaurant Can Ros,Barceloneta,catalan,PRICE_LEVEL_MODERATE,True,4.4,3483,0.8914,9,5,4,41.377342,2.189383,1.0,5,0.8914,1.0,0.5,0.5
ChIJa7Yn0KujpBIRIwAaKRWatiM,Can Borbó,Barceloneta,catalan,,True,4.3,2840,0.3347,12,14,-2,41.377438,2.188638,1.0,5,0.3347,0.00027824236296914725,0.7102314231676554,0.08654650614978726
ChIJvSwZc6qjpBIRAuKsFPAVUC0,L'Òstia,Barceloneta,catalan,PRICE_LEVEL_MODERATE,True,4.1,3289,0.549,14,11,3,41.379919,2.187955,0.8,5,0.549,0.2933313547225369,-0.7,0.26215652156117225
ChIJQToyLTajpBIR05SWlCNZ5CQ,Casa Marina Picufi,Barceloneta,catalan,PRICE_LEVEL_MODERATE,True,4.8,3693,0.9006,1,3,-2,41.376578,2.189497,1.0,5,0.9006,0.9255133772742468,1.0,0.17103883954965898
ChIJxW-8SgCjpBIRWvoeHq8iCMY,Chao Pescao Seafood Born,Barceloneta,seafood,,True,4.8,4261,0.971,2,2,0,41.386177,2.184119,1.0,5,0.971,1.0,1.0,
ChIJh01b3aujpBIRAxWL8QFNnjE,La Mar Salada Restaurant,Barceloneta,seafood,PRICE_LEVEL_MODERATE,True,4.3,4666,0.6626,7,6,1,41.376719,2.188858,1.0,5,0.6626,1.0,0.2284889405918612,-0.06756752993044621
ChIJpzXOugCjpBIRsAdKUExkXVw,Montolio Can Maño,Barceloneta,seafood,PRICE_LEVEL_INEXPENSIVE,True,4.5,1996,0.9834,4,1,3,41.381144,2.18849,1.0,5,0.9834,0.856428919272057,0.0,0.7495606281250619
ChIJY_4KlaSjpBIR9vsIlYaNcTM,Six Oysters,Barceloneta,seafood,,True,4.8,855,0.7882,1,4,-3,41.380677,2.187375,1.0,5,0.7882,0.5471040404765282,0.5,0.5
ChIJ95Y-S6ijpBIRaU62K0ScWYU,Rias do Miño Restaurant,Barceloneta,seafood,PRICE_LEVEL_MODERATE,True,4.4,2863,0.9491,5,3,2,41.37895,2.191761,1.0,5,0.9491,0.8266184088626274,0.8451591026598766,0.6
ChIJuQv57aGjpBIRwMdBlFsmjb0,Salamanca,Barceloneta,seafood,PRICE_LEVEL_MODERATE,True,4.0,30670,0.6535,9,7,2,41.378617,2.191189,1.0,5,0.6535,0.5931785054115543,0.8,-0.8
ChIJXWTSeqmjpBIRrPnYp6WalW4,Paco Alcalde,Barceloneta,seafood,PRICE_LEVEL_MODERATE,True,4.4,2468,0.7692,6,5,1,41.377338,2.189755,1.0,5,0.7692,1.0,0.8899301072596741,
ChIJh-jn_8yjpBIREbYxPww08pw,Sea Breeze Beach House,Barceloneta,seafood,,True,4.5,4468,-0.2726,3,9,-6,41.376048,2.190073,0.6,5,-0.2726,0.48241404123745374,0.2705688531302328,-0.8
ChIJL_kQlAijpBIRCYCEoSNB1cA,Restaurant Agua,Barceloneta,seafood,PRICE_LEVEL_MODERATE,True,4.1,5469,0.42,8,8,0,41.384829,2.196077,0.8,5,0.42,0.42874779244054395,0.6589977691253573,-0.45445698575443094
ChIJBy06SemjpBIR9lJV9-35M7o,Samsara Barcelona,Barceloneta,vegetarian,,True,4.7,1190,0.557,5,12,-7,41.377931,2.191051,0.8,5,0.557,0.9543134667486218,0.4506146165598625,0.5
ChIJHavdiqmjpBIR4f23pJlUGEM,Bubita Bar,Barceloneta,vegetarian,PRICE_LEVEL_MODERATE,True,4.5,2677,0.8955,9,1,8,41.385715,2.181636,1.0,5,0.8955,0.8990435034595198,0.6794116687710475,
ChIJl0ZZHxujpBIRN2y9xZrUuRI,All you eat is love,Barceloneta,vegetarian,PRICE_LEVEL_INEXPENSIVE,True,4.7,2824,0.861,7,3,4,41.391686,2.191449,1.0,5,0.861,1.0,1.0,
ChIJnxRQBKyjpBIRKFeCru2-P4I,RANGOLI,Barceloneta,vegetarian,PRICE_LEVEL_MODERATE,True,4.5,1480,0.669,11,11,0,41.374993,2.188584,1.0,5,0.669,0.6354955033086674,0.8580250650063307,0.04501905636016434
ChIJoek09aujpBIRMUV36ijXVRQ,La Cala,Barceloneta,vegetarian,PRICE_LEVEL_INEXPENSIVE,True,4.8,3368,0.6919,3,10,-7,41.375895,2.187713,1.0,5,0.6919,0.7264196824474392,0.8292079465347235,-0.6
ChIJtai3XQyjpBIRbm_zNnb-vEQ,Honest Greens Barceloneta,Barceloneta,vegetarian,PRICE_LEVEL_MODERATE,True,4.5,2842,0.8319,13,5,8,41.369956,2.188325,1.0,5,0.8319,0.824736394512516,0.8455322744467273,0.4
ChIJXeVHlK6jpBIRjRlhP--X_Rw,GRASA,Barceloneta,vegetarian,,True,4.9,507,0.5548,1,13,-12,41.376902,2.189961,1.0,5,0.5548,0.8898886087141505,0.6728478918017439,-0.5
ChIJc1p3x9qjpBIR_ikMpaLfR6Q,anís cafe,Barceloneta,vegetarian,,True,4.9,621,0.8086,2,7,-5,41.378301,2.19028,1.0,5,0.8086,0.6437633013296794,0.8012670582940296,
ChIJce5Qy62jpBIRzIkfImC-PBE,PIRATA BAR AND RESTO,Barceloneta,vegetarian,PRICE_LEVEL_MODERATE,True,4.3,1371,-0.1916,15,15,0,41.375962,2.189292,1.0,5,-0.1916,-0.023095938707222038,-0.06684087310890853,-0.4632721762438943
ChIJaWC2RuijpBIRoZcFRiCkgzw,Coco Social House Barceloneta,Barceloneta,vegetarian,,True,4.7,1840,0.8457,6,4,2,41.377194,2.190398,1.0,5,0.8457,1.0,1.0,
ChIJrZ_vh26jpBIRRJWRxDR6yBA,Golmaal Street Food,Barceloneta,vegetarian,,True,4.8,198,0.526,4,14,-10,41.378262,2.189431,1.0,5,0.526,1.0,,
ChIJr2wytgCjpBIR8IY5ousa7mw,La Carioca,Barceloneta,vegetarian,PRICE_LEVEL_MODERATE,True,4.5,3138,0.8863,12,2,10,41.380636,2.186123,1.0,5,0.8863,1.0,0.8552397993751049,
ChIJ60JIOAOjpBIRk1qAhVnCmbE,Santa Vegana,Barceloneta,vegetarian,,True,4.6,940,0.8235,8,6,2,41.380357,2.177085,1.0,5,0.8235,0.9404549155498726,0.8559107348496112,0.7
ChIJa96V3aujpBIRaw1cSVMNDJQ,FOC BARCELONETA,Barceloneta,vegetarian,PRICE_LEVEL_MODERATE,True,4.5,3662,0.7036,10,9,1,41.3761,2.189173,1.0,5,0.7036,1.0,0.8159037819428733,0.51088326401288
ChIJeWhgRf6ipBIRgu6m5FhwqCg,Vegetalia Born - Restaurant vegetarià Barcelona,Barceloneta,vegetarian,PRICE_LEVEL_MODERATE,True,4.4,2842,0.762,14,8,6,41.383568,2.182594,1.0,5,0.762,0.653786320043659,0.7499362479120627,-0.5
ChIJjUb-nmajpBIROciKny1h4hA,La Sagrada Hamburgueseria,Barceloneta,burger,PRICE_LEVEL_MODERATE,True,4.6,1643,1.1419,8,4,4,41.379143,2.189054,1.0,5,1.1419,0.9160720094203807,1.0,0.5
ChIJeS32WXejpBIRQ98i_TGXUtU,Urban Burger & Bar,Barceloneta,burger,PRICE_LEVEL_MODERATE,True,4.7,2132,1.1419,3,2,1,41.388735,2.195581,1.0,5,1.1419,1.0,1.0,0.7500830489554966
ChIJYys5rsSjpBIROwN7mkVcj4g,Velabcn Restaurante & Lounge Bar,Barceloneta,burger,PRICE_LEVEL_MODERATE,True,4.6,3607,0.3905,6,13,-7,41.377622,2.188584,1.0,5,0.3905,0.4889962167596491,0.5,-1.0
ChIJY4csPZujpBIRH6loN_BmYfs,Antonia's Burger | Barceloneta,Barceloneta,burger,,True,4.1,125,0.5022,15,12,3,41.378931,2.191644,1.0,5,0.5022,0.6582467649596399,0.7,0.013541500781123013
ChIJC9ODH1ejpBIR1IoyyqB3bz8,Fast Eddie’s,Barceloneta,burger,,True,4.5,2987,1.1419,9,1,8,41.385959,2.180011,1.0,5,1.1419,0.11556100215901967,-0.3,0.5
ChIJhctFrg6jpBIRYW38D7lYooU,Cosmo Burger,Barceloneta,burger,,True,4.9,72,1.1419,1,3,-2,41.376122,2.145144,0.8,5,1.1419,1.0,0.8285053866856287,
ChIJu7jeJs-jpBIRRCdqqO6rSLQ,FESTIN – Burgers & Beers,Barceloneta,burger,PRICE_LEVEL_MODERATE,True,4.7,737,1.1419,5,5,0,41.388663,2.180626,1.0,5,1.1419,1.0,1.0,
ChIJaXfF4KujpBIRZtHyg3MG7bc,Bivio steak house | Barcelona,Barceloneta,burger,PRICE_LEVEL_MODERATE,True,4.6,8927,0.7645,7,10,-3,41.376581,2.188999,1.0,5,0.7645,1.0,1.0,
ChIJqQI7SqijpBIRcCr6G6MHPoM,Xup Xup Restaurant,Barceloneta,burger,PRICE_LEVEL_MODERATE,True,4.3,6507,1.0389,14,6,8,41.379591,2.192841,1.0,5,1.0389,0.7940844937285868,1.0,-0.5
ChIJqzqYqwejpBIR3YFV-3gQfkE,La Real Hamburguesería | Maremagnum,Barceloneta,burger,,True,4.4,107,0.2694,10,14,-4,41.3751,2.182927,1.0,5,0.2694,0.31131360579645084,,-0.5
ChIJd_SKk8SjpBIRRMQe2kuy-CU,Burger Bar Barcelona,Barceloneta,burger,,True,4.8,521,0.9899,2,9,-7,41.373552,2.145136,1.0,5,0.9899,0.5284593747320461,,0.5
ChIJJZ7zDKmjpBIRvW7_KhJAi-0,Surf House Barcelona,Barceloneta,burger,PRICE_LEVEL_MODERATE,True,4.3,4424,0.6512,12,11,1,41.377503,2.190637,1.0,5,0.6512,-0.25294781985174186,0.8976739738183732,
ChIJjVr9NlmjpBIRwMiBFvXhpTQ,The Fish & Chips Shop,Barceloneta,burger,,True,4.3,495,1.0068,13,7,6,41.378917,2.191696,1.0,5,1.0068,1.0,-0.57001686593753,-0.5
ChIJuWSVtrqjpBIRFTjKF3z3S30,B-ONE Palau de Mar,Barceloneta,burger,PRICE_LEVEL_MODERATE,True,4.4,10178,-0.3205,11,15,-4,41.380646,2.18548,1.0,5,-0.3205,-0.5021797507222204,0.05868574131980076,-0.6050883386802685
ChIJXz3tRQCjpBIRR4JopWdAEcw,Burger King | Barceloneta,Barceloneta,burger,PRICE_LEVEL_INEXPENSIVE,True,3.4,6845,-0.8581,16,16,0,41.38149,2.187095,0.4,5,-0.8581,-1.0,-1.0,
ChIJtxJnhVaipBIRZet-s8fjU40,Red Garter Barcelona,Barceloneta,burger,PRICE_LEVEL_MODERATE,True,4.7,2802,0.9987,4,8,-4,41.377599,2.178878,0.8,5,0.9987,0.6666461467090504,0.48860491295595043,0.4851844725263832
ChIJk8nGfjWjpBIRsrJnFcCWc9A,Duomi Ramen,Barceloneta,ramen,,True,4.8,132,0.2427,1,9,-8,41.412111,2.16909,1.0,5,0.2427,0.7419641694156915,,0.5355910506546935
ChIJdzhnaFGjpBIRBdToPSf-Qn8,Tungu ramen,Barceloneta,ramen,PRICE_LEVEL_INEXPENSIVE,True,4.6,504,0.9742,5,4,1,41.411554,2.175133,1.0,5,0.9742,0.9215699131273682,0.7000000000000001,0.7
ChIJDXD0VACjpBIR2E-_p5ksuxY,Anime Ramen,Barceloneta,ramen,,True,4.3,274,-0.1167,10,10,0,41.411214,2.174599,1.0,5,-0.1167,0.7740735650088427,0.5951213862236817,
ChIJ1ex698SipBIRWhtu_GvwJec,Ramen-ya SENBA ZURU | RAMEN BARCELONA,Barceloneta,ramen,PRICE_LEVEL_MODERATE,True,4.4,947,1.0463,8,2,6,41.407553,2.172304,1.0,5,1.0463,1.0,1.0,0.0
ChIJ5ciZIZOjpBIRkWIFwsMXK-8,Mian Dao 拉面馆,Barceloneta,ramen,,True,4.7,423,0.911,2,5,-3,41.40129,2.188743,1.0,5,0.911,0.8,0.7000000000000001,0.8253246319056619
ChIJp2XtANmipBIRG3CC_4DdCh0,Teishoku Ramen,Barceloneta,ramen,PRICE_LEVEL_INEXPENSIVE,True,4.6,669,0.9907,6,3,3,41.408041,2.181677,1.0,5,0.9907,0.9442404886636498,0.9573512906506266,
ChIJTQCe5euipBIR3Fjf5HFrtts,RAMEN-BCN,Barceloneta,ramen,PRICE_LEVEL_MODERATE,True,4.5,1316,0.5897,7,7,0,41.396631,2.169029,1.0,5,0.5897,0.3933548107341171,0.5,1.0
ChIJASelYnajpBIRB6Ckci7mCFg,牛蘭仙牛肉面｜Ox Lan (Sagrada Familia),Barceloneta,ramen,,True,4.4,184,0.8357,9,6,3,41.401115,2.173923,1.0,5,0.8357,0.8217408049515512,0.7761290994130013,0.6930722366811641
ChIJVcsOruWjpBIRlbMjTjZEIGU,Umaimon Tonkotsu Ramen TAKUMI GLÒRIES,Barceloneta,ramen,PRICE_LEVEL_MODERATE,True,4.6,1328,0.3935,4,8,-4,41.405373,2.193583,1.0,5,0.3935,-0.13020709836817151,0.7000000000000001,
ChIJV17xXJ2jpBIRFES_EnHwj7g,Rakkan Bar,Barceloneta,ramen,,True,4.7,79,1.0526,3,1,2,41.390257,2.159371,1.0,5,1.0526,,0.5,
ChIJ6QPv5AejpBIRS7LcJecO_UQ,Arenal Restaurant,Barceloneta,paella,PRICE_LEVEL_MODERATE,True,4.5,7686,0.9622,1,1,0,41.38211,2.194332,1.0,5,0.9622,0.683762708183858,0.8421210207014092,-0.5
ChIJHyca8QCjpBIRjvatUThJOjE,Restaurant Pasa Tapas,Barceloneta,paella,PRICE_LEVEL_MODERATE,True,4.2,4716,0.7325,2,2,0,41.382244,2.187132,0.8,5,0.7325,1.0,0.6492994252029679,1.0
ChIJj_zJGvyjpBIRxbEbjhxKrNg,Port Bay Brunch & Tapas,Barceloneta,brunch,,True,4.6,964,0.7109,7,5,2,41.381121,2.185693,1.0,5,0.7109,1.0,0.9302441938349568,
ChIJZU9DkPmjpBIRk84SXAPpXpE,Colibri Brunch,Barceloneta,brunch,,True,4.6,2393,0.5527,6,7,-1,41.380967,2.187256,1.0,5,0.5527,0.549388869833012,0.3708872730985241,
ChIJqedhjwCjpBIRrtt6XryI87E,Brunch & Cake by the Sea,Barceloneta,brunch,PRICE_LEVEL_MODERATE,True,4.4,5123,0.4224,8,8,0,41.381042,2.187279,1.0,5,0.4224,0.7499759892175767,0.8400620925565101,
ChIJNZbr1QejpBIRROJHSrP7Psc,La Muchacha Brunch Barceloneta,Barceloneta,brunch,,True,4.9,438,0.8442,3,2,1,41.379478,2.190616,1.0,5,0.8442,0.7359339408390351,0.752537592158604,
ChIJ1zh098GjpBIR8hnQv_6WHS8,Trópico,Barceloneta,brunch,,True,5.0,723,0.7928,1,4,-3,41.380165,2.187596,0.8,5,0.7928,0.8985695306333732,0.8401478766118915,
ChIJ44Y8zyCjpBIRlB4-etd1nTM,Billy Brunch & Park,Barceloneta,brunch,PRICE_LEVEL_MODERATE,True,4.9,3911,0.9394,2,1,1,41.387901,2.178703,1.0,5,0.9394,1.0,1.0,
ChIJy2woBwqjpBIRT-ZI3xxdYBQ,La Granja del Barri Barceloneta,Barceloneta,brunch,,True,4.8,70,0.8113,4,3,1,41.382116,2.188809,1.0,5,0.8113,0.8708910708422604,0.8057362469227316,0.8382892759386414
ChIJG2nJWvijpBIRZ32BnTbGlvk,La roseta,Barceloneta,brunch,,True,4.7,748,0.689,5,6,-1,41.377826,2.190293,1.0,5,0.689,0.7386549869240884,0.7000994983629947,0.6999999999999998
ChIJGR_QNqqjpBIR_jfXuCRc68g,Lolita Barceloneta,Barceloneta,brunch,PRICE_LEVEL_MODERATE,True,4.1,1361,0.3525,9,9,0,41.378386,2.188278,0.8,5,0.3525,0.5391720159030987,0.6785840052127012,-0.5
ChIJafyH-7yipBIRs3RpixIVwQE,La Trini,Gràcia,tapas,PRICE_LEVEL_MODERATE,False,4.2,2163,0.9268,21,9,12,41.403915,2.156933,0.8,5,0.9268,0.25427349310355685,0.5627916291596484,
ChIJ5wCpfU-jpBIRQXR8Ou-mp5Q,L´APE REGINA,Gràcia,italian,PRICE_LEVEL_MODERATE,False,4.9,967,0.6326,2,16,-14,41.404578,2.160767,1.0,5,0.6326,0.21130900598611693,-0.5004271101757385,
ChIJW3AI_vqjpBIRvIFzVT4t_6Q,Sartoria Panatieri | Pizzeria Barcelona,Gràcia,italian,PRICE_LEVEL_MODERATE,False,4.4,4282,0.7622,17,14,3,41.406654,2.160319,1.0,5,0.7622,0.933744727843785,0.7,-0.2
ChIJiS1FfJeipBIR37jCnVRR-90,Raffaelli Ristorante Italiano,Gràcia,italian,PRICE_LEVEL_MODERATE,False,4.5,1054,0.9313,13,5,8,41.398184,2.155046,1.0,5,0.9313,1.0,0.8504070594567471,
ChIJMcH3MBKjpBIROt8mn3tf6PI,Bottega Bernacca Barcelona,Gràcia,italian,,False,4.9,103,0.9313,4,2,2,41.398047,2.159461,1.0,5,0.9313,0.8768643728622636,0.875299208225738,0.5
ChIJqZmep76ipBIRpO_8sYcoumc,Restaurant Il Giardinetto Di Gràcia,Gràcia,italian,PRICE_LEVEL_MODERATE,False,4.3,1577,0.4259,19,19,0,41.405297,2.159889,1.0,5,0.4259,0.8283305495579827,0.5,0.5
ChIJgywkLBmjpBIR315P3w5-1P8,Don Kilo Sagrada Familia,Gràcia,italian,,False,4.8,2313,0.8069,7,12,-5,41.406051,2.167795,1.0,5,0.8069,1.0,0.40114594825870803,
ChIJSUgLEUujpBIRgY42l0-6FSI,Da Nanni | Gràcia,Gràcia,italian,,False,4.5,848,0.9313,12,3,9,41.40392,2.156707,0.8,5,0.9313,1.0,0.6126217524976696,
ChIJXwkQ6KKipBIRm2cFZ50qg8I,Macchina Pasta Bar (Astúries),Gràcia,italian,PRICE_LEVEL_INEXPENSIVE,False,4.4,4346,0.6739,18,15,3,41.403038,2.153623,0.6,5,0.6739,0.8891469219880472,0.726356543675677,0.23108548249837443
ChIJdXdnMCKjpBIRZZWYXywNKG4,Circolo Popolare Barcelona,Gràcia,italian,,False,4.8,6514,0.6035,6,17,-11,41.391693,2.166097,1.0,5,0.6035,0.7725875191674896,0.7338282826852879,
ChIJq4cO07OipBIRS5h6cBIPRng,Restaurant Terra Mía,Gràcia,italian,PRICE_LEVEL_MODERATE,False,4.5,2811,0.8644,14,9,5,41.416294,2.157527,1.0,5,0.8644,0.9726645296325885,0.7,0.6
ChIJGTrtltyipBIRtGgJda8twWo,Paisano Bistró,Gràcia,italian,PRICE_LEVEL_MODERATE,False,4.8,5583,0.91,5,7,-2,41.404874,2.175926,1.0,5,0.91,0.8814387433384706,0.3844212697337017,
ChIJ1dsoY-OjpBIRmfT6P3-z7BY,SU TALLERI - ITALIAN FOOD BAR,Gràcia,italian,,False,4.9,245,0.8308,1,10,-9,41.411067,2.176054,1.0,5,0.8308,1.0,0.8536642956119712,1.0
ChIJC6UNZ-SjpBIRAcg1Q77l6mQ,Cannoleria | Barcelona,Gràcia,italian,,False,4.9,404,0.9313,3,1,2,41.411647,2.175118,1.0,5,0.9313,1.0,1.0,1.0
ChIJj0NcGEajpBIRrIHRUIg2ORM,Bella Venezia,Gràcia,italian,PRICE_LEVEL_MODERATE,False,4.7,1616,-0.1076,10,20,-10,41.396548,2.164524,1.0,5,-0.1076,0.8597179805304644,,0.6803732700134023
ChIJiRvg_ruipBIRMPbfNesXDc8,La Chitarra,Gràcia,italian,PRICE_LEVEL_MODERATE,False,4.8,517,0.9313,8,4,4,41.406223,2.159547,1.0,5,0.9313,1.0,0.9850787832673168,
ChIJY9bGeoCjpBIRTu3n1YHRDUg,Maramaia,Gràcia,italian,PRICE_LEVEL_INEXPENSIVE,False,4.7,2009,0.8942,9,8,1,41.399212,2.154629,1.0,5,0.8942,1.0,1.0,
ChIJC0fdLZaipBIRGfCQdb8Fruk,Nabucco Tiramisu,Gràcia,italian,PRICE_LEVEL_MODERATE,False,4.2,2833,0.7681,20,13,7,41.400451,2.157728,1.0,5,0.7681,0.6596666861858393,0.5,0.5
ChIJqZveAZaipBIRYSIYVDv25Ak,Messié Pizza Gluten Free Gràcia,Gràcia,italian,PRICE_LEVEL_INEXPENSIVE,False,4.5,3064,0.8237,15,11,4,41.400965,2.159603,1.0,5,0.8237,0.5119829985977717,0.5,0.34400850070111416
ChIJsdHJfzSjpBIRnjJhwh41oJc,L'Italiano Perso,Gràcia,italian,,False,4.7,869,0.9256,11,6,5,41.406626,2.146955,1.0,5,0.9256,0.8917835221669683,0.8707506901776669,-0.2
ChIJzyi1XpGipBIRikv1m69uDRg,Margherita,Gràcia,italian,PRICE_LEVEL_MODERATE,False,4.5,3765,0.4921,16,18,-2,41.395083,2.159531,1.0,5,0.4921,0.4245200691511437,-0.3,
ChIJY1Z0yr-ipBIRkH_II3aRJlo,Restaurant Cal Boter,Gràcia,catalan,PRICE_LEVEL_MODERATE,False,4.5,3108,0.5112,9,14,-5,41.402169,2.162492,1.0,5,0.5112,0.5180236701967139,0.557941541356653,0.03546850700079546
ChIJR_f_fpaipBIRziiS9P7QZJA,Can Punyetes | Gràcia,Gràcia,catalan,PRICE_LEVEL_INEXPENSIVE,False,4.3,1618,0.6209,15,12,3,41.398675,2.159722,1.0,5,0.6209,0.4756479858826641,0.5,0.8
ChIJGWN0hpiipBIRjZG6pU6JG18,Restaurante Morralet | Gràcia,Gràcia,catalan,PRICE_LEVEL_EXPENSIVE,False,4.6,735,0.8432,6,8,-2,41.40046,2.152325,1.0,5,0.8432,1.0,0.5,
ChIJxTtYt8GipBIRr4aVi0Xb8iI,Can Josep,Gràcia,catalan,PRICE_LEVEL_MODERATE,False,4.7,636,0.9405,5,6,-1,41.402383,2.167691,1.0,5,0.9405,1.0,0.5,1.0
ChIJ2XjxXJeipBIRJlpmR93RVFQ,Santa Gula,Gràcia,catalan,PRICE_LEVEL_MODERATE,False,4.5,1896,0.9405,8,1,7,41.397254,2.155472,1.0,5,0.9405,1.0,1.0,
ChIJ61bgsaKipBIRAHi03ImrfMw,El Disbarat,Gràcia,catalan,PRICE_LEVEL_MODERATE,False,4.3,1207,0.9405,14,2,12,41.401721,2.154579,1.0,5,0.9405,1.0,1.0,0.5
ChIJo7JlTACjpBIRqeeRxMyPhEE,SENSE FONS RESTAURANT,Gràcia,catalan,,False,4.7,396,0.9405,4,4,0,41.411267,2.158109,1.0,5,0.9405,1.0,1.0,0.5
ChIJGVCPl72ipBIRSeI5JEDIt7U,Restaurant La Llar de Foc,Gràcia,catalan,PRICE_LEVEL_MODERATE,False,4.2,595,0.762,16,10,6,41.402218,2.15786,1.0,5,0.762,0.6584727513505195,0.49894335121226674,0.6566027528917304
ChIJ14DbPpKipBIROjfbj6-0FW0,Cerveceria Catalana,Gràcia,catalan,PRICE_LEVEL_MODERATE,False,4.4,24345,0.5113,10,13,-3,41.392325,2.160851,1.0,5,0.5113,0.8493479610940272,0.7453422834278582,0.7
ChIJHVLj87OjpBIRv8ht2ZlwHlg,El Far del Nord,Gràcia,catalan,,False,4.6,528,0.7152,7,11,-4,41.407992,2.15944,1.0,5,0.7152,0.5210673614612843,0.5,0.7999999999999999
ChIJ8TBN5bajpBIRroXbNJafSCg,Fonda Pepa,Gràcia,catalan,,False,4.4,671,0.8987,11,7,4,41.402066,2.162321,0.8,5,0.8987,0.8306435963145347,0.6457974355673576,0.6652951275782641
ChIJPfDI3bqipBIRjgWxclrllwE,Bar Restaurant Casi,Gràcia,catalan,PRICE_LEVEL_INEXPENSIVE,False,4.7,2438,0.7677,2,9,-7,41.409139,2.155875,0.8,5,0.7677,0.8826495758456228,0.6405245496634819,0.7439977768767665
ChIJ4c8zrdyipBIRjad3VFd2SMI,Restaurant la Llesca,Gràcia,catalan,PRICE_LEVEL_MODERATE,False,4.3,1394,0.0457,13,16,-3,41.405323,2.174589,1.0,5,0.0457,-0.17044266256524926,1.0,1.0
ChIJdRk3EqGjpBIRzJJm0MCLMRU,Restaurant Disbauxa,Gràcia,catalan,PRICE_LEVEL_MODERATE,False,4.7,1255,0.9405,3,3,0,41.409073,2.159356,1.0,5,0.9405,0.6031576297116418,0.6442746808333204,0.8695907605614567
ChIJb7rlCZmipBIRq9uGfgmuZTw,Taverna La Llesca | Travessera de Gràcia,Gràcia,catalan,PRICE_LEVEL_INEXPENSIVE,False,4.4,919,0.4289,12,15,-3,41.397805,2.152422,1.0,5,0.4289,-0.7600595023167477,1.0,
ChIJvQlbquejpBIRd7O3iq29BGE,Restaurant Casa Poma,Gràcia,catalan,,False,4.8,408,0.9405,1,5,-4,41.410332,2.158634,1.0,5,0.9405,1.0,1.0,0.5
ChIJa0Y5HZiipBIROWRrQ0RCjVA,Botafumeiro,Gràcia,seafood,PRICE_LEVEL_VERY_EXPENSIVE,False,4.4,9298,0.7278,12,12,0,41.400453,2.154694,1.0,5,0.7278,0.9340405246072718,0.2315243506883792,0.010870570261769982
ChIJefDU-c-jpBIRs6mbAkcK3fE,La Paradeta la Vila de Gràcia (Torrent),Gràcia,seafood,PRICE_LEVEL_MODERATE,False,4.5,853,0.9186,10,5,5,41.399649,2.160206,1.0,5,0.9186,0.11501015456253447,0.5,-0.7
ChIJhV0nSPOjpBIRnaiO5QG4srw,Monte Marinero,Gràcia,seafood,,False,4.8,4437,0.9023,3,7,-4,41.396269,2.153869,1.0,5,0.9023,0.9438347700165988,0.5,0.5
ChIJq2Xe4ruipBIRKnUZMSdXSSk,Lluritu,Gràcia,seafood,PRICE_LEVEL_MODERATE,False,4.4,1864,0.7966,15,10,5,41.406734,2.159622,1.0,5,0.7966,0.32819707162175454,-0.4398122161752877,0.3
ChIJJUDOpWejpBIR_vmjZWgT1Rs,Lluritu 2,Gràcia,seafood,PRICE_LEVEL_MODERATE,False,4.5,1594,0.8364,8,9,-1,41.402297,2.156236,1.0,5,0.8364,0.7251661660398275,0.2494628739146948,0.7
ChIJb0PdG5ujpBIRvr8dQdSefvk,La Punta Callao Cevichería,Gràcia,seafood,PRICE_LEVEL_MODERATE,False,4.7,1713,0.9736,5,2,3,41.401258,2.154828,1.0,5,0.9736,0.8714781622519177,0.4490512982119217,0.6
ChIJpyR375CipBIRW3FiYR5q0Yg,MariscCo,Gràcia,seafood,PRICE_LEVEL_MODERATE,False,4.4,2418,0.0293,14,17,-3,41.394347,2.156639,1.0,5,0.0293,0.7700610295350407,,0.5
ChIJy2hJdO2ipBIRX7cMu4pIUtE,Chao Pescao,Gràcia,seafood,PRICE_LEVEL_MODERATE,False,4.6,11005,0.9376,7,3,4,41.391895,2.16697,1.0,5,0.9376,0.9691987638959505,0.5,0.716988318341132
ChIJg2mdP8OipBIR_kYUrsvg4yA,Puertecillo Sagrada Familia,Gràcia,seafood,PRICE_LEVEL_MODERATE,False,4.4,4699,0.8926,13,8,5,41.404494,2.173442,1.0,5,0.8926,0.6656306304630575,0.4728988623513084,0.6971358999775698
ChIJs2hwvz6jpBIRhkMGBjp6Oug,El Farolito gracia,Gràcia,seafood,,False,4.7,412,0.6187,6,13,-7,41.406519,2.159836,1.0,5,0.6187,0.5635246548937307,0.5534130272594873,-0.75
ChIJK0IpiMWipBIRgGLY79AEZMQ,Marisqueria A Estrela Galega,Gràcia,seafood,PRICE_LEVEL_MODERATE,False,4.5,1487,0.1493,9,16,-7,41.410755,2.171229,1.0,5,0.1493,0.5694763614274775,-0.4747266919248177,0.5
ChIJW3X2gL6ipBIRKMhN7d0NtJI,L'Arrosseria Xàtiva | Gràcia,Gràcia,seafood,PRICE_LEVEL_EXPENSIVE,False,4.2,4153,0.9279,16,4,12,41.40389,2.159676,1.0,5,0.9279,-0.280470005709084,,
ChIJX4dTfIqjpBIR1LHb35mssL8,La Xafardera,Gràcia,seafood,,False,4.9,85,0.9162,1,6,-5,41.410844,2.174057,1.0,5,0.9162,1.0,0.5,0.5
ChIJV8WA9e2ipBIRiItAoG_lpRU,La Llotja@ El Nacional,Gràcia,seafood,,False,3.6,453,0.4045,17,15,2,41.390858,2.168527,1.0,5,0.4045,1.0,0.2009455833932532,-0.40363886269334986
ChIJ7Rqtx0WjpBIRI-VtsVgiWGA,Batea,Gràcia,seafood,,False,4.7,1337,0.4703,4,14,-10,41.389058,2.167148,1.0,5,0.4703,0.6497290175330263,0.8520508872045468,-0.015192862662543131
ChIJ-56FfO2ipBIRAvht1XWvwZA,La Mesa,Gràcia,seafood,,False,4.8,4,1.0146,2,1,1,41.391279,2.166738,0.75,4,1.0146,1.0,,
ChIJM5FFbvKipBIRdWugDh577Ao,El Nacional Barcelona,Gràcia,seafood,PRICE_LEVEL_MODERATE,False,4.4,40535,0.7545,11,11,0,41.390583,2.168391,1.0,5,0.7545,0.8233440150038539,0.8930879469914118,
ChIJ5_7ei0ujpBIR16972jxtjqM,La PerraVerde,Gràcia,vegetarian,PRICE_LEVEL_MODERATE,False,4.8,873,0.8683,1,5,-4,41.398745,2.161136,1.0,5,0.8683,0.5150210345259589,0.7441239965631626,0.6999999999999998
ChIJs_yMMsGjpBIReLxHPhuwFjo,UMAMI PLANT BASED,Gràcia,vegetarian,PRICE_LEVEL_MODERATE,False,4.8,1605,0.9455,4,2,2,41.399868,2.160671,1.0,5,0.9455,1.0,0.5575705754045174,0.5
ChIJu0J4lr6ipBIRevA8AWU8Mb4,Veg World India,Gràcia,vegetarian,PRICE_LEVEL_INEXPENSIVE,False,4.6,2622,0.9289,11,3,8,41.40461,2.160735,1.0,5,0.9289,1.0,0.8990884836475298,
ChIJg61kuZWipBIRSjgcqDBXVU8,Restaurant gut,Gràcia,vegetarian,PRICE_LEVEL_MODERATE,False,4.5,1979,0.8413,14,6,8,41.399324,2.161241,1.0,5,0.8413,0.8599937923377216,0.7803563139324435,0.3
ChIJY6H5r-ejpBIRJiGrKKTsqOk,Gallo Santo Gràcia Veg Mex & Cocktails,Gràcia,vegetarian,PRICE_LEVEL_MODERATE,False,4.5,1478,0.8054,13,9,4,41.400378,2.159549,1.0,5,0.8054,0.5814931901020866,0.580492740127212,0.9000000000000001
ChIJpTuydLujpBIRZ-hFsfOriYE,Café Floh,Gràcia,vegetarian,PRICE_LEVEL_MODERATE,False,4.6,700,0.3509,10,16,-6,41.405071,2.155375,1.0,5,0.3509,0.4615521158521327,0.8000000000000002,0.5468339726687681
ChIJW2QGCA2jpBIR5fCbZ4ovskg,Fat Veggies,Gràcia,vegetarian,PRICE_LEVEL_MODERATE,False,4.6,2010,0.8296,9,7,2,41.396218,2.17137,1.0,5,0.8296,0.9410142114137124,0.7999892795500655,
ChIJ537Si26jpBIR6pPPZN3Mm3k,Botànic,Gràcia,vegetarian,,False,4.6,466,0.7936,8,11,-3,41.403251,2.159088,1.0,5,0.7936,0.8,0.4841393776762537,
ChIJQyVoNJSipBIRWOkhd81fXYg,Swagatam Restaurant,Gràcia,vegetarian,PRICE_LEVEL_INEXPENSIVE,False,4.7,2568,0.8014,6,10,-4,41.398282,2.160747,1.0,5,0.8014,0.79415948957805,0.7,
ChIJcRNmG5aipBIRvjtddo3D5pk,La Vietnamita | Gràcia,Gràcia,vegetarian,PRICE_LEVEL_MODERATE,False,4.3,2746,0.5684,16,14,2,41.40076,2.159086,1.0,5,0.5684,0.9029382160870073,1.0,0.5902701362082106
ChIJgW7kDq-jpBIRYx1XEKSBP5Q,Vegan Mount | Barcelona,Gràcia,vegetarian,PRICE_LEVEL_INEXPENSIVE,False,4.7,782,0.4887,7,15,-8,41.404883,2.179832,1.0,5,0.4887,,-0.4438455388301833,0.851276481591679
ChIJQzmqovmjpBIRPvV8Lo0CTLE,Honest Greens Gran de Gràcia,Gràcia,vegetarian,PRICE_LEVEL_MODERATE,False,4.5,2209,0.7372,12,12,0,41.398788,2.157091,1.0,5,0.7372,0.751108471001717,0.76059466182426,
ChIJo-_c-uujpBIR7zrT5PXcin4,"Good Shit, Vegan Kebabs.",Gràcia,vegetarian,PRICE_LEVEL_MODERATE,False,4.5,755,0.8138,15,8,7,41.402842,2.156467,1.0,5,0.8138,0.8,,0.8
ChIJm001PQCjpBIRMYF52T3aB88,Annapurna | Barcelona,Gràcia,vegetarian,,False,4.8,409,0.575,3,13,-10,41.402789,2.156384,1.0,5,0.575,0.4302264955205403,0.2654342428332893,-0.8
ChIJPcJUG5mjpBIRPrfCnwtgPI0,La Consciente Gracia. Healthy Brunch. Vegan. Gluten Free Bakery.,Gràcia,vegetarian,,False,4.7,203,0.9455,5,1,4,41.404165,2.151686,1.0,5,0.9455,1.0,1.0,
ChIJ6ZQgw_SjpBIRtbRMETO1Qv8,Indian Herbs,Gràcia,vegetarian,PRICE_LEVEL_MODERATE,False,4.8,2523,0.9044,2,4,-2,41.400723,2.164615,1.0,5,0.9044,0.8380826854157751,0.5682204944420673,0.5
ChIJx76cooejpBIRMSKE3qmIwNs,Bemba Smash Burger,Gràcia,burger,PRICE_LEVEL_INEXPENSIVE,False,4.9,1813,1.0603,1,5,-4,41.406119,2.159698,1.0,5,1.0603,0.8686163858415711,0.4488500896036632,
ChIJ2_VNbhijpBIRIQGodJ6njZg,Pink Buda,Gràcia,burger,PRICE_LEVEL_MODERATE,False,4.7,749,1.1419,4,2,2,41.403793,2.156698,1.0,5,1.1419,0.8855965289863835,-0.5,
ChIJDz8RWq2jpBIRM7ygnFWbcWc,The Ranch SmokedBurgers,Gràcia,burger,,False,4.7,373,0.7345,5,8,-3,41.405617,2.155328,1.0,5,0.7345,0.8752769785367505,1.0,-0.5
ChIJN-MtQaOipBIRCGHxo9G1PKY,Chivuo's Gracia,Gràcia,burger,PRICE_LEVEL_INEXPENSIVE,False,4.4,3381,1.1419,10,4,6,41.404955,2.153947,1.0,5,1.1419,1.0,1.0,1.0
ChIJc6qEaBajpBIRfr6XxEt0yP4,Kemako,Gràcia,burger,PRICE_LEVEL_MODERATE,False,4.7,908,0.5086,6,9,-3,41.403563,2.150116,1.0,5,0.5086,0.6750620287213726,0.20088687056767318,0.2
ChIJHViKnLmipBIR1BXW9jS23Wo,Atabalats Gastroburgers,Gràcia,burger,,False,4.5,672,0.9374,8,7,1,41.40877,2.160527,1.0,5,0.9374,0.9441164236774334,,0.10628122311005601
ChIJJ8Q3NjmjpBIRU1Q8RdfJ8hU,Ardemos - Hamburgueses sense gluten | Barcelona,Gràcia,burger,,False,4.8,5488,1.1419,3,3,0,41.40719,2.173762,1.0,5,1.1419,1.0,,
ChIJ-7F5hYSjpBIR9ZbK9LYTxmc,TERNERITO street food,Gràcia,burger,,False,4.8,445,1.1419,2,1,1,41.405253,2.177436,1.0,5,1.1419,1.0,-0.20000000000000004,
ChIJR2697qKipBIRc4piwQyD3oc,La Tropa Burger Bar.,Gràcia,burger,PRICE_LEVEL_MODERATE,False,4.1,1346,0.3691,12,10,2,41.402833,2.153265,1.0,5,0.3691,1.0,0.5,0.5
ChIJd9R28byipBIRwCr4Wi-h4bU,2 Hundred Burger,Gràcia,burger,,False,3.7,38,0.2544,13,11,2,41.404485,2.156881,1.0,5,0.2544,-0.19064068392714775,0.5,0.8
ChIJfQtFgY-jpBIRNiZWqsuSCYs,VICIO Lesseps | Restaurant,Gràcia,burger,PRICE_LEVEL_MODERATE,False,4.5,1280,0.0735,9,13,-4,41.405771,2.150267,1.0,5,0.0735,-0.3374090823994592,0.09964856744002372,-0.6419057004752539
ChIJgQomdr2jpBIR-uV-NfXYMgI,Green&Burger Barcelona - Burger & Healthy Restaurant Near Sagrada Familia,Gràcia,burger,PRICE_LEVEL_MODERATE,False,4.7,1656,1.0023,7,6,1,41.402038,2.172653,1.0,5,1.0023,0.8903921082355827,0.5562357276709196,-0.5
ChIJM88FR7ajpBIRnvgASs4qkDE,Five Guys Burgers and Fries,Gràcia,burger,PRICE_LEVEL_MODERATE,False,4.2,2217,0.2331,11,12,-1,41.390424,2.167815,0.8,5,0.2331,0.11800762056025116,0.5,-0.7368566037168591
ChIJo30DJrajpBIRmMhcP4DxHCg,Ryu Ramen Gracia,Gràcia,ramen,,False,4.7,134,0.5624,2,4,-2,41.40289,2.158914,1.0,5,0.5624,1.0,1.0,0.8015362106336034
ChIJ6Z1MNTSjpBIR_G6GkdgSpdg,Noru Bar “Gracia”,Gràcia,ramen,,False,4.7,122,0.9155,1,2,-1,41.398684,2.159836,1.0,5,0.9155,0.7502512682827591,0.6468701896721021,
ChIJmbipzZKjpBIRlrRtzF5h7h0,Asian Ways | Gràcia,Gràcia,ramen,PRICE_LEVEL_MODERATE,False,4.5,873,0.834,4,3,1,41.402099,2.158006,1.0,5,0.834,0.45930711415811004,0.707065868362666,0.14424254185261534
ChIJtVItgOajpBIR-8zNMq6TrQQ,Restaurant Clover,Gràcia,ramen,PRICE_LEVEL_MODERATE,False,4.6,721,0.9948,3,1,2,41.40911,2.159811,1.0,5,0.9948,0.9244243808367717,0.7656018969449114,0.5224432152978151
ChIJS6beY46jpBIR2C0YWmqic74,Gràcia Platets i Bistró,Gràcia,paella,,False,4.8,3487,0.9622,2,1,1,41.393017,2.168712,1.0,5,0.9622,1.0,1.0,1.0
ChIJbyhIyryipBIRNjV6yWyx25I,Casa López,Gràcia,paella,PRICE_LEVEL_INEXPENSIVE,False,4.6,1404,0.9622,4,2,2,41.404749,2.155076,1.0,5,0.9622,0.8796768383694011,0.6164407647426594,0.867625738977188
ChIJgXhRA5iipBIRlYIbAhFwH-c,Taberna del Cura,Gràcia,paella,PRICE_LEVEL_MODERATE,False,4.2,3369,0.9622,7,3,4,41.400506,2.154539,1.0,5,0.9622,0.8586583682355657,1.0,1.0
ChIJkTaYapCjpBIRiq-Xx5lspbw,Diània,Gràcia,paella,PRICE_LEVEL_MODERATE,False,4.5,1068,0.7433,5,7,-2,41.399507,2.158176,1.0,5,0.7433,0.8458767348886973,0.6631447740747614,0.5
ChIJq7fFcb2ipBIR1ROcxJNdHBY,Envalira,Gràcia,paella,PRICE_LEVEL_MODERATE,False,4.4,817,0.8842,6,4,2,41.401899,2.156695,1.0,5,0.8842,0.8798371641006744,0.38337782075547006,0.7397745296311851
ChIJZ9fQvb2ipBIRyaZy8wUqRGQ,Pepa Tomate | Gràcia,Gràcia,paella,PRICE_LEVEL_EXPENSIVE,False,4.0,3928,0.381,8,8,0,41.402421,2.158192,1.0,5,0.381,0.4990164542122451,1.0,
ChIJG3rXscejpBIR9SQ0hUUsTjY,Madre Taberna Moderna | Sagrada Família,Gràcia,paella,PRICE_LEVEL_MODERATE,False,4.6,5453,0.7677,3,6,-3,41.405279,2.174254,1.0,5,0.7677,0.8823711368855748,0.6413042025750136,0.1999402845593967
ChIJNcaqanyjpBIRso8hWh7L3tE,Oníric Restaurant,Gràcia,paella,,False,4.9,529,0.8468,1,5,-4,41.407895,2.157747,1.0,5,0.8468,0.8610668313550165,0.725034884508989,0.6
ChIJyQc2EDWjpBIRpRkCf4pTz-g,Coco Social House | Gràcia,Gràcia,brunch,PRICE_LEVEL_MODERATE,False,4.9,11459,0.897,3,5,-2,41.405256,2.150233,1.0,5,0.897,0.9738456397159513,0.8259347024238837,
ChIJbZrRgNGjpBIRaMMCcVmvB6E,Cumin Brunch & Café,Gràcia,brunch,,False,4.7,910,0.9394,11,2,9,41.408578,2.175763,1.0,5,0.9394,1.0,0.7368747419629008,1.0
ChIJn0B-17ajpBIRilzH-3YltSk,Brunch Out Barcelona,Gràcia,brunch,,False,4.7,363,0.9394,12,3,9,41.404448,2.172445,1.0,5,0.9394,1.0,0.3028212053480042,1.0
ChIJIfrAG9-jpBIRX_9u8uyaoxs,Kala,Gràcia,brunch,PRICE_LEVEL_MODERATE,False,4.9,1305,0.7953,1,8,-7,41.40214,2.175189,1.0,5,0.7953,0.3032626089329868,,-1.0
ChIJoRTv-HmjpBIR_UbIhglz0c0,Brunchit,Gràcia,brunch,,False,4.8,3075,0.7662,7,12,-5,41.396467,2.170887,1.0,5,0.7662,1.0,0.8892021483322811,
ChIJoZv8aW-jpBIRQmDlnZ7tEKA,Marmot,Gràcia,brunch,PRICE_LEVEL_INEXPENSIVE,False,4.8,626,0.9394,8,4,4,41.404007,2.171377,1.0,5,0.9394,0.44321966792036077,1.0,0.5
ChIJm0x7_PqjpBIRMaRXpXQSu2w,Corgi Cafe | Gràcia,Gràcia,brunch,,False,4.8,701,0.8692,6,6,0,41.403346,2.150876,0.8,5,0.8692,0.6450531214571867,0.7119513331206265,
ChIJ67TY2euipBIRhKOwdXPxwyQ,Billy Brunch,Gràcia,brunch,PRICE_LEVEL_MODERATE,False,4.8,12855,0.9394,5,1,4,41.397699,2.169377,1.0,5,0.9394,0.9232172538521762,0.7474753069817224,
ChIJ47yx4ZWipBIRSzQpIX_kHO8,Sabio Infante - Brunch & coffee,Gràcia,brunch,PRICE_LEVEL_MODERATE,False,4.2,2234,0.5152,14,15,-1,41.399925,2.159714,1.0,5,0.5152,0.8,0.6335836004284545,-1.0
ChIJ3ZFyMOOjpBIRd7QiP4kDOP8,Brunch.ar,Gràcia,brunch,,False,4.8,1239,0.5984,4,14,-10,41.401684,2.182622,1.0,5,0.5984,0.8131677550366855,0.6693111068320533,-0.4
ChIJWWNxreSjpBIRD8oY7nrJFc8,Antü Brunch,Gràcia,brunch,,False,4.7,656,0.6687,10,13,-3,41.399564,2.168887,1.0,5,0.6687,0.7952660013076823,0.6743766689018544,0.564927222528861
ChIJwyeIz-6ipBIRRWnGPGHTf1E,EatMyTrip - Brunch & Bakery,Gràcia,brunch,PRICE_LEVEL_MODERATE,False,4.7,9936,0.8407,13,7,6,41.395175,2.171434,1.0,5,0.8407,0.9424175221378145,0.8551153990149907,
ChIJ0bCOuTmjpBIRUZIl4kNA7QI,Les Filles,Gràcia,brunch,PRICE_LEVEL_MODERATE,False,4.0,1792,0.2333,16,16,0,41.396173,2.156883,1.0,5,0.2333,0.6127248104866257,0.6838220967889252,-1.0
ChIJ7friK1qjpBIRj9BQLrVO9i0,Brunch & Cake,Gràcia,brunch,,False,4.7,2743,0.7686,9,11,-2,41.40213,2.1738,1.0,5,0.7686,0.7053634505309055,0.6604625689471768,
ChIJb_BElJaipBIRrqX5ke5TZL8,Buenas Migas,Gràcia,brunch,PRICE_LEVEL_MODERATE,False,4.1,3663,0.772,15,10,5,41.397571,2.158787,1.0,5,0.772,0.8300965740362681,0.7245244230478597,0.5
ChIJtdaiXnujpBIRXgz5O10oORg,Manifest Inspiring Brunch,Gràcia,brunch,,False,4.9,714,0.7839,2,9,-7,41.407348,2.177056,1.0,5,0.7839,0.6368395344406416,0.6352880381263323,
ChIJu-DFmIG9pBIRVSUI1M9ES8o,Vermuteria Oxiterraneo Sant Andreu,Sant Andreu,tapas,,False,4.9,215,0.904,1,9,-8,41.436157,2.19005,0.8,5,0.904,1.0,1.0,0.5
ChIJ0WH9bL-9pBIRm7EPztwuDoA,La Bodegueta de Sant Andreu,Sant Andreu,tapas,PRICE_LEVEL_MODERATE,False,4.5,3044,0.9536,12,1,11,41.430275,2.187876,1.0,5,0.9536,1.0,0.8747301568988062,
ChIJ53Nsp129pBIRMh2AjhmSoGo,Gastro Will Brasas y Tapas,Sant Andreu,tapas,,False,4.8,223,0.9536,2,2,0,41.436763,2.203744,1.0,5,0.9536,1.0,0.5,
ChIJszDMYNq8pBIReNigReFqA_c,La Tapadera de Sant Andreu,Sant Andreu,tapas,PRICE_LEVEL_INEXPENSIVE,False,4.5,733,0.853,14,13,1,41.431592,2.191405,1.0,5,0.853,0.997916192254884,0.0,0.9954797747763773
ChIJcxs2F969pBIR5cX5UOpoHr4,ÖUZÖ Barcelona,Sant Andreu,tapas,PRICE_LEVEL_MODERATE,False,4.6,1609,0.9536,10,5,5,41.437573,2.190622,1.0,5,0.9536,0.9448174232158532,,1.0
ChIJb0KRBdO8pBIRqZqbsGUjWlQ,TocaTeca Barcelona,Sant Andreu,tapas,PRICE_LEVEL_MODERATE,False,4.6,2963,0.9118,9,8,1,41.423595,2.180978,1.0,5,0.9118,0.8723969966421747,0.4,
ChIJIT_A3qG9pBIRC93m5eBA9hc,Restaurante Peca Peca,Sant Andreu,tapas,PRICE_LEVEL_INEXPENSIVE,False,4.8,386,0.8823,3,10,-7,41.431522,2.185884,1.0,5,0.8823,0.8632451529685277,0.6,
ChIJJR6mm-C8pBIRRgTvz_C0m1A,Bar Oliva Cafeteria,Sant Andreu,tapas,PRICE_LEVEL_INEXPENSIVE,False,4.6,1372,0.8706,8,12,-4,41.44097,2.187563,0.8,5,0.8706,0.06082842518720526,0.1394176455116253,1.0
ChIJ5co1tl69pBIRb6DO-C8ftas,Collonut - Sant Andreu,Sant Andreu,tapas,PRICE_LEVEL_MODERATE,False,4.5,1746,0.8715,13,11,2,41.432851,2.189426,1.0,5,0.8715,0.9243992312850132,1.0,-0.4
ChIJ15GSMnW9pBIRdMEh5gZMXgw,La Klaka,Sant Andreu,tapas,PRICE_LEVEL_INEXPENSIVE,False,4.4,1390,0.6966,16,19,-3,41.424564,2.190146,1.0,5,0.6966,0.9833484045275396,0.9910406472759833,0.5598169699063585
ChIJz1k49Rm9pBIRf22jYUgjMEw,Llevatapes,Sant Andreu,tapas,,False,4.5,234,0.8007,15,17,-2,41.435272,2.188129,1.0,5,0.8007,0.8253612074310807,0.7506714145924953,-0.2
ChIJs0Yo9w29pBIRDEkpRL17EUw,La Bycicleta,Sant Andreu,tapas,PRICE_LEVEL_MODERATE,False,4.6,558,0.8491,11,14,-3,41.429967,2.191941,1.0,5,0.8491,1.0,0.817441831380963,
ChIJW6HE9uC8pBIRT9egJCMedbg,La Fuente - Sant Andreu,Sant Andreu,tapas,PRICE_LEVEL_INEXPENSIVE,False,4.3,219,0.0454,18,20,-2,41.442241,2.187164,0.6,5,0.0454,0.9978038920245398,1.0,-0.2
ChIJdfHiHd68pBIRA3WlkHisb4s,Atrapat's,Sant Andreu,tapas,PRICE_LEVEL_INEXPENSIVE,False,4.2,414,0.9188,19,7,12,41.440438,2.188343,0.4,5,0.9188,0.9767918598447396,0.7602567431185009,1.0
ChIJMdXkrt28pBIRwAhLHeQ8iC8,L'Antic Colmado,Sant Andreu,tapas,PRICE_LEVEL_INEXPENSIVE,False,4.4,1226,0.9532,17,6,11,41.438466,2.19133,1.0,5,0.9532,1.0,0.9953483306562966,1.0
ChIJ9_7RShS9pBIRGcwcfjWiX-g,Casernes Terraza Bar,Sant Andreu,tapas,,False,4.7,12,0.9536,5,3,2,41.443892,2.191931,0.2,5,0.9536,1.0,0.8063959140891189,
ChIJuQgwrEG9pBIRkxNosdzH5e0,Restaurant l'Andreuenc,Sant Andreu,tapas,PRICE_LEVEL_MODERATE,False,4.8,642,0.7558,4,18,-14,41.430695,2.189008,1.0,5,0.7558,0.7095806536979723,0.7000000000000001,-0.21271214265031235
ChIJ7VCCKt68pBIRlzn-zok7lCc,Mesón O'Antoxo,Sant Andreu,tapas,PRICE_LEVEL_INEXPENSIVE,False,4.6,822,0.8392,7,15,-8,41.431996,2.195043,1.0,5,0.8392,0.8730102908305364,1.0,0.7075493530415171
ChIJdVdVXd-8pBIRxVN8vD2eg3k,Bar Extremeño,Sant Andreu,tapas,,False,4.1,249,0.8278,20,16,4,41.436785,2.184916,0.8,5,0.8278,-0.6192614779905216,0.5,0.989098948054907
ChIJ___P_9y8pBIRC8r1n7uJHY4,Casa CINCA,Sant Andreu,tapas,,False,4.7,25,0.9536,6,4,2,41.438046,2.192013,1.0,5,0.9536,1.0,1.0,
ChIJuVxsD1W9pBIRwYpKhRGqYcg,Usuki,Sant Andreu,japanese,,False,4.5,728,0.7836,4,13,-9,41.435177,2.192155,1.0,5,0.7836,0.20498335991437402,,0.036644203217015135
ChIJC77iJGmjpBIRzujW65fNHWE,Izakaya Barcelona Gastro & Sushi,Sant Andreu,japanese,PRICE_LEVEL_MODERATE,False,4.6,1132,0.5826,3,15,-12,41.42,2.183087,1.0,5,0.5826,0.4131965671049726,0.7147402325177487,
ChIJT5lXDd28pBIRLmhLz91pipg,Shokudo,Sant Andreu,japanese,PRICE_LEVEL_INEXPENSIVE,False,4.2,1515,1.095,13,2,11,41.43929,2.192285,0.8,5,1.095,1.0,,0.9219263384244768
ChIJoaljV6C9pBIRRdlh0dWKDVA,KASA JAPO,Sant Andreu,japanese,,False,3.8,204,0.0641,20,18,2,41.440961,2.198462,1.0,5,0.0641,0.18968805911172182,0.27642656573630053,0.11539519717589145
ChIJH6PkjYC9pBIRoXYv8Wxd5Kk,Sushify,Sant Andreu,japanese,PRICE_LEVEL_MODERATE,False,4.2,842,0.9158,12,9,3,41.437611,2.191607,1.0,5,0.9158,-0.052522063680963536,0.32163306733548097,-0.17058052077405625
ChIJ8zHbZQC9pBIRkmbQ17SkGSw,UKIYO RAMEN,Sant Andreu,japanese,,False,4.0,161,0.3027,15,16,-1,41.433742,2.189251,1.0,5,0.3027,0.5007258795175097,0.900616513319737,
ChIJ34dkYQC9pBIRlgXnDYUCsno,Kyoka Fabra i Puig,Sant Andreu,japanese,,False,4.2,619,1.0575,9,7,2,41.429766,2.183772,1.0,5,1.0575,1.0,1.0,1.0
ChIJFTHtfpy9pBIRbcRPZ2iDDKM,Shokudo II,Sant Andreu,japanese,PRICE_LEVEL_INEXPENSIVE,False,4.2,1443,0.6899,11,14,-3,41.435777,2.190834,1.0,5,0.6899,0.5721137440844277,0.3221734605910664,0.6126898190529003
ChIJVZ0lQgCjpBIRjy0sEfUAhJg,H83 NAVAS,Sant Andreu,japanese,,False,4.4,900,0.1819,5,17,-12,41.414558,2.188233,1.0,5,0.1819,-0.5553506207043368,-0.19963025530433323,0.6162398162496351
ChIJJdijutO9pBIRPXmQNT2Xpf4,imperial sushi,Sant Andreu,japanese,PRICE_LEVEL_MODERATE,False,4.0,1707,0.9389,16,8,8,41.442104,2.206644,0.8,5,0.9389,1.0,0.5,0.7098586501332419
ChIJi57xicO9pBIRJJuy9qld5Qg,Ming,Sant Andreu,japanese,PRICE_LEVEL_INEXPENSIVE,False,4.4,154,-0.3878,8,19,-11,41.441908,2.188725,1.0,5,-0.3878,1.0,,1.0
ChIJievdgtWipBIRDCTl-W1dIrM,Restaurant Japonès YIDUO2,Sant Andreu,japanese,PRICE_LEVEL_INEXPENSIVE,False,3.8,960,0.9001,19,10,9,41.417964,2.183787,1.0,5,0.9001,0.8437971401296781,-0.9541363255008805,0.2895142157213455
ChIJ5f0mZIWjpBIRzPqjt4nhQEs,japonesa,Sant Andreu,japanese,,False,4.9,281,1.095,1,1,0,41.415063,2.181141,1.0,5,1.095,1.0,0.687487465134989,1.0
ChIJ48gjuma9pBIRdPGX-hO9v14,Oia Sushi,Sant Andreu,japanese,PRICE_LEVEL_INEXPENSIVE,False,4.2,1047,0.8309,10,12,-2,41.423176,2.184491,0.8,5,0.8309,0.518217963718678,,0.8000000000000002
ChIJbyhMXSy9pBIRXuJiQfpQ5Sc,Restaurant Fusi,Sant Andreu,japanese,PRICE_LEVEL_INEXPENSIVE,False,4.0,418,1.0626,17,6,11,41.423814,2.178135,0.8,5,1.0626,1.0,0.8,1.0
ChIJUZJtrp-9pBIR5_zc1LbVWUc,Raisu CC la maquinista,Sant Andreu,japanese,PRICE_LEVEL_INEXPENSIVE,False,4.2,1240,-0.5082,14,20,-6,41.440144,2.19878,1.0,5,-0.5082,-0.6065776224194208,-0.48319416509038454,0.5
ChIJiXQeYwa9pBIR2jQNKFbrZ7I,Lush Food,Sant Andreu,japanese,,False,4.7,147,1.095,2,5,-3,41.438091,2.189049,0.8,5,1.095,0.2959214764855639,1.0,
ChIJe5nKJUu9pBIRc67vdJwMBlU,amanecer,Sant Andreu,japanese,,False,4.4,70,1.095,7,4,3,41.423334,2.184121,1.0,5,1.095,1.0,0.6182691145049414,1.0
ChIJd4ND6na9pBIRXkhVdTb27uE,Teppan Shoku,Sant Andreu,japanese,,False,4.4,35,1.095,6,3,3,41.441832,2.198884,1.0,5,1.095,0.34543079820491196,1.0,1.0
ChIJP8rwpiu9pBIRN9NH0rDvsqY,Oishii Sushi,Sant Andreu,japanese,PRICE_LEVEL_INEXPENSIVE,False,3.8,1485,0.8356,18,11,7,41.423337,2.180987,1.0,5,0.8356,0.6577711716468335,1.0,1.0
ChIJoe6PLPy9pBIR-D0jToapumk,DORA Restaurant Sant Andreu by Nonna Dora,Sant Andreu,italian,,False,4.7,154,0.8394,7,8,-1,41.436217,2.190444,1.0,5,0.8394,1.0,0.8784059621334132,1.0
ChIJgZYkMB29pBIRGSSeog-niXw,Il Ristorante della Nonna Dora,Sant Andreu,italian,PRICE_LEVEL_INEXPENSIVE,False,4.3,698,0.9078,13,5,8,41.432311,2.189499,1.0,5,0.9078,1.0,0.5309555981609397,1.0
ChIJJZ6sOAC9pBIR1mCqHJyogVQ,Casa De Sant Andreu,Sant Andreu,italian,,False,4.9,469,0.8983,1,6,-5,41.436741,2.196284,1.0,5,0.8983,1.0,0.7435602316889782,0.8
ChIJJfMMoaG9pBIRo8An_ZvKBPI,Dolce Vita,Sant Andreu,italian,,False,4.8,204,0.7197,3,12,-9,41.438854,2.188991,1.0,5,0.7197,0.7842820465822471,0.7836829358692223,
ChIJmVdoAAC9pBIRws-KkE5eUXc,Il Mulino,Sant Andreu,italian,,False,4.5,350,0.5457,11,13,-2,41.428671,2.190551,1.0,5,0.5457,0.42937988659995135,1.0,0.8530243195300966
ChIJVzapNuOjpBIR7i4SeuLOi_c,Pizzeria Nanà,Sant Andreu,italian,PRICE_LEVEL_INEXPENSIVE,False,4.6,1777,0.8274,8,10,-2,41.417658,2.187819,1.0,5,0.8274,1.0,1.0,1.0
ChIJgXLXEtCjpBIR3n_M3l5eRto,Diavolo Rosso ristorante pizzeria nova gestió,Sant Andreu,italian,PRICE_LEVEL_MODERATE,False,4.5,1076,0.9313,10,3,7,41.418798,2.182517,0.8,5,0.9313,0.9545702689240817,0.40029677983419293,
ChIJW6HE9uC8pBIR1PK2CdhwJ10,The Pizza House (Pizzeria i Restaurant),Sant Andreu,italian,PRICE_LEVEL_INEXPENSIVE,False,4.6,863,0.9313,9,2,7,41.44223,2.187042,1.0,5,0.9313,1.0,0.5,0.7
ChIJLTDnvUm9pBIRymEitlRAyo8,Yamalba,Sant Andreu,italian,,False,4.9,117,0.9313,2,1,1,41.445329,2.190236,1.0,5,0.9313,1.0,1.0,0.9338703394928382
ChIJj0HZ97W9pBIR-LD6mDneiD4,Arte de la Pizza,Sant Andreu,italian,,False,4.8,708,0.9313,4,4,0,41.423613,2.180589,1.0,5,0.9313,1.0,0.5,1.0
ChIJsyg9GyyjpBIRQE2R7NjpHGs,ristorante made in italy,Sant Andreu,italian,PRICE_LEVEL_INEXPENSIVE,False,4.1,301,0.0841,14,14,0,41.416024,2.190185,1.0,5,0.0841,-0.5933868001570995,0.7,0.5220383242088898
ChIJ_Xb80aWjpBIRNeBzxZIiaPo,Pizzeria Maragall S.L,Sant Andreu,italian,PRICE_LEVEL_MODERATE,False,4.7,1255,0.8548,6,7,-1,41.41762,2.18082,1.0,5,0.8548,0.8957594354918696,0.4770916157024283,
ChIJv2UNjEejpBIR0MQPv0zNKZA,Il Palato - Restaurant i Xarcuteria Italiana,Sant Andreu,italian,,False,4.8,451,0.761,5,11,-6,41.408951,2.188862,1.0,5,0.761,0.8216883245445633,0.6276921430498477,
ChIJXdT66J-jpBIRTJuXsouwd3c,Off-Street,Sant Andreu,italian,PRICE_LEVEL_MODERATE,False,4.4,1112,0.8283,12,9,3,41.418719,2.178552,1.0,5,0.8283,0.8937665584033733,0.8002124008530974,
ChIJoTjmDdq8pBIRSuPeDp4E17g,El Racó de l'Avi Melcior,Sant Andreu,catalan,PRICE_LEVEL_MODERATE,False,4.2,1806,0.8535,9,3,6,41.431496,2.193113,0.8,5,0.8535,0.8589844860826045,0.7,0.8
ChIJE9YUkNq8pBIRguuoM-dq0R8,El Celler dels Avis,Sant Andreu,catalan,PRICE_LEVEL_MODERATE,False,4.5,381,0.728,7,7,0,41.431216,2.192254,1.0,5,0.728,0.2999069036873748,0.3835786251998285,0.2557118795694876
ChIJl6WtXsW8pBIRJYnruYeIR_k,El Comensal,Sant Andreu,catalan,PRICE_LEVEL_INEXPENSIVE,False,4.5,809,0.94,8,1,7,41.430673,2.195093,1.0,5,0.94,1.0,1.0,0.5
ChIJ-cvJTHm9pBIRgcfGzvZQ-aA,Bar Restaurant Els Catas,Sant Andreu,catalan,,False,4.7,139,0.5278,3,9,-6,41.431864,2.189594,1.0,5,0.5278,0.6751925675991427,0.7312821364924295,0.17706823905125604
ChIJzdR5y3-9pBIRJTBnxHRBLkE,CASA 22,Sant Andreu,catalan,,False,5.0,29,0.9009,1,2,-1,41.434607,2.190279,1.0,5,0.9009,0.933365561483306,0.6489675792435967,
ChIJBUVd2Ae9pBIRDd6eEpC5IBI,Restaurant Cal Pesca,Sant Andreu,catalan,PRICE_LEVEL_MODERATE,False,4.6,766,0.8189,5,4,1,41.430035,2.186003,1.0,5,0.8189,0.8157054280911163,0.5619606244303952,0.5
ChIJnbqFUQC9pBIR81MXd-0TAj0,La Madurada Petit Versalles,Sant Andreu,catalan,,False,4.9,11218,0.6688,2,8,-6,41.435284,2.189619,1.0,5,0.6688,0.8202809042310243,0.7491463333647009,0.5
ChIJ3_rL8Nm8pBIRWVPvNK4mOhs,Restaurant Lagar,Sant Andreu,catalan,PRICE_LEVEL_MODERATE,False,4.5,1091,0.7479,6,5,1,41.431225,2.188934,1.0,5,0.7479,0.7086865552507886,0.6256430251197792,-0.5
ChIJ07zwD1G9pBIRPRZVXZBc9NA,Panxacontents,Sant Andreu,catalan,PRICE_LEVEL_MODERATE,False,4.7,235,0.7472,4,6,-2,41.434652,2.188756,1.0,5,0.7472,0.7568723228948957,0.4978383913253252,0.6
ChIJjcQlkta8pBIRWrRrviw4wR0,La Paradeta Meridiana,Sant Andreu,seafood,PRICE_LEVEL_MODERATE,False,4.3,1360,1.0146,7,4,3,41.42646,2.187516,1.0,5,1.0146,,,1.0
ChIJV5qFodq8pBIRoE89hKNMWaY,Dopazo Restaurante Marisquería,Sant Andreu,seafood,PRICE_LEVEL_MODERATE,False,4.4,1185,1.0146,3,3,0,41.430717,2.193049,0.6,5,1.0146,1.0,1.0,1.0
ChIJSyhM7iyjpBIRFzB8KSNZMC0,Esthvan,Sant Andreu,seafood,PRICE_LEVEL_MODERATE,False,4.6,361,1.0146,2,2,0,41.418741,2.190876,1.0,5,1.0146,1.0,0.7603379424990607,
ChIJyQYmXNy8pBIR4hS1J_ROgCI,Restaurant Marín,Sant Andreu,seafood,PRICE_LEVEL_MODERATE,False,4.4,1427,1.0146,4,5,-1,41.436957,2.191394,1.0,5,1.0146,1.0,,
ChIJ5wZyrcO8pBIRtOv3S-ZEwq0,La Casa Gallega,Sant Andreu,seafood,PRICE_LEVEL_INEXPENSIVE,False,3.6,1715,0.2431,10,10,0,41.437544,2.196643,0.8,5,0.2431,0.7355556766568162,1.0,1.0
ChIJQxKeqx-9pBIRGWNH-DP1opo,Camarote marisquéria,Sant Andreu,seafood,PRICE_LEVEL_MODERATE,False,4.3,1678,1.0146,5,1,4,41.442982,2.182119,0.6,5,1.0146,0.9913392880724314,1.0,1.0
ChIJR2h59Cy9pBIRcZpdSF7q-jQ,Puerto Chalaco,Sant Andreu,seafood,,False,4.6,917,0.6261,1,9,-8,41.440289,2.198729,1.0,5,0.6261,1.0,1.0,0.5
ChIJzeeJFgC9pBIRXn2gIxt-fDQ,"Restaurante Gallego Cervantes 4, rambla 11 de septiembre n”19",Sant Andreu,seafood,,False,3.9,182,0.7902,9,8,1,41.429843,2.19387,1.0,5,0.7902,0.768395869950369,0.6812127913152534,0.29011423161400945
ChIJieZdWt-8pBIRQSbE_Iu5Hso,O´Rincon Galego,Sant Andreu,seafood,PRICE_LEVEL_INEXPENSIVE,False,4.3,857,0.9938,6,7,-1,41.436441,2.1848,1.0,5,0.9938,0.9310120396308637,1.0,1.0
ChIJHbaRPMK8pBIRy-G56bQKXiI,Cantonada Fusión Tapería & Arrocería,Sant Andreu,seafood,,False,4.1,626,1.0018,8,6,2,41.438752,2.197537,1.0,5,1.0018,0.9311381786789681,0.7438315052763917,0.9144187222978081
ChIJucUU5wy9pBIRH_0-Bgdx4p0,Oakberry Açai | La Maquinista,Sant Andreu,vegetarian,PRICE_LEVEL_MODERATE,False,4.3,68,0.4498,11,10,1,41.440342,2.198145,0.8,5,0.4498,-0.037132987411284214,1.0,1.0
ChIJxRwKr2y9pBIRAFkxDr-Shso,Ganga,Sant Andreu,vegetarian,,False,4.8,473,0.9455,8,4,4,41.430527,2.186105,0.8,5,0.9455,0.388082323232784,0.7970604962598199,
ChIJ1flM-Y69pBIRpwudhAZkZnU,Restaurante KAT(Chittomittho),Sant Andreu,vegetarian,PRICE_LEVEL_INEXPENSIVE,False,4.8,589,0.7036,4,9,-5,41.435797,2.184603,1.0,5,0.7036,-0.31655480109926915,0.5833988817785674,1.0
ChIJZZQYXHK9pBIR3Bx4UNiOVNY,TU CACHAPA.COM,Sant Andreu,vegetarian,PRICE_LEVEL_INEXPENSIVE,False,4.7,1761,0.4334,9,11,-2,41.425973,2.187886,1.0,5,0.4334,0.15904057540612979,0.5,
ChIJ9xD384a9pBIRG9JU4x3nUeA,"Aloha - Poké, Amanides & More",Sant Andreu,vegetarian,PRICE_LEVEL_INEXPENSIVE,False,4.1,491,0.3179,13,12,1,41.429722,2.189795,0.8,5,0.3179,0.6312124652158524,,0.22894349255603025
ChIJ_b5U2FCjpBIRlJ6bGUtwI8o,Mad Mad Vegan Barcelona,Sant Andreu,vegetarian,,False,4.9,1690,0.9455,3,1,2,41.38863,2.158666,1.0,5,0.9455,1.0,0.872393896566664,0.5
ChIJu1LVZdm9pBIRWN9ReM-H2ao,Cabrona de Barri,Sant Andreu,vegetarian,,False,4.8,266,0.9455,7,3,4,41.438464,2.19276,1.0,5,0.9455,1.0,0.7304933041776154,0.5
ChIJnTegiye9pBIRn2EZhpO7eBI,Chez Lola,Sant Andreu,vegetarian,PRICE_LEVEL_INEXPENSIVE,False,4.8,374,0.8183,6,7,-1,41.432033,2.183945,1.0,5,0.8183,0.9179017009300926,0.7415114529369365,0.996816344751679
ChIJG9lj5iajpBIRNIlqyQUR4Hg,Mundo Vegan,Sant Andreu,vegetarian,,False,4.8,487,0.1835,5,13,-8,41.388858,2.1569,0.8,5,0.1835,0.8003276884133733,0.8254884380803127,0.7
ChIJ9fqk2oW9pBIRKN-op9TeHv4,Wen Zhou Ramen,Sant Andreu,vegetarian,PRICE_LEVEL_INEXPENSIVE,False,4.4,445,0.9167,10,5,5,41.43567,2.190755,1.0,5,0.9167,1.0,1.0,0.5
ChIJNSGl2du8pBIRL1_f559PmX4,La Tropa,Sant Andreu,vegetarian,PRICE_LEVEL_MODERATE,False,4.2,1711,0.7263,12,8,4,41.433766,2.189498,1.0,5,0.7263,1.0,0.9047423896179351,0.4930875966588762
ChIJ4f-DqGqjpBIRLZEQ7m0bc8c,Morgentau. Restaurante Brunch Vegano Barcelona,Sant Andreu,vegetarian,,False,4.9,641,0.9019,2,6,-4,41.403824,2.195583,1.0,5,0.9019,1.0,1.0,0.8
ChIJi6eZh_SjpBIRb7jhSoBnlLI,Lúcuma,Sant Andreu,vegetarian,,False,5.0,42,0.9455,1,2,-1,41.408571,2.179723,1.0,5,0.9455,1.0,1.0,1.0
ChIJLblMMYu9pBIRGY-gYFA_OtA,HYPE HAMBURGUESAS SANT ANDREU,Sant Andreu,burger,,False,4.6,483,0.4308,7,15,-8,41.420679,2.18217,0.8,5,0.4308,0.5969518972075855,,
ChIJyUqUy0W9pBIRbRR1aTo4Koc,Singular Smash Burger,Sant Andreu,burger,,False,4.6,228,1.1419,8,3,5,41.423975,2.191196,1.0,5,1.1419,1.0,1.0,0.7926458993676037
ChIJGRYqXNejpBIR87YLI1r6dV0,Vilato Burger,Sant Andreu,burger,,False,4.8,226,0.8311,2,10,-8,41.417718,2.184056,1.0,5,0.8311,0.8189297837233456,0.8,0.7864837064566071
ChIJ6fsy3n-9pBIRpAvWPBMozQk,Smash Burger - La Sagrera,Sant Andreu,burger,,False,4.5,133,1.0825,10,5,5,41.423035,2.19102,1.0,5,1.0825,,0.913492308962834,
ChIJGWm5TcS9pBIRreC68FzGbKw,MDQ,Sant Andreu,burger,PRICE_LEVEL_MODERATE,False,4.5,1293,-0.4364,11,17,-6,41.431188,2.189225,1.0,5,-0.4364,1.0,0.0,0.5
ChIJBzFoEACjpBIRLD8jQr8yeKM,SMOQ BURGER,Sant Andreu,burger,,False,4.9,305,1.1419,1,1,0,41.407264,2.184246,1.0,5,1.1419,1.0,0.8247560835422847,0.5
ChIJB_f149u8pBIROpYlOu5TGw8,Frankfurt Sant Andreu,Sant Andreu,burger,PRICE_LEVEL_INEXPENSIVE,False,4.1,881,0.9765,16,8,8,41.434672,2.189545,1.0,5,0.9765,1.0,,
ChIJsxJMYVe9pBIRRgkHjeh6agQ,Smash Hiro | Hamburguesería en Sant Andreu,Sant Andreu,burger,,False,4.1,11,0.4879,17,14,3,41.441772,2.190254,1.0,5,0.4879,,,-0.004248419479945562
ChIJ516l4Om8pBIRt3ruhhBGivM,La Burguesa | Westfield la Maquinista,Sant Andreu,burger,PRICE_LEVEL_INEXPENSIVE,False,4.3,3528,-0.0753,12,16,-4,41.440069,2.198712,1.0,5,-0.0753,0.22449744751283204,0.5,-0.7424891790243945
ChIJ3VXCcSi9pBIRf8mYEOwMwio,Ovante,Sant Andreu,burger,PRICE_LEVEL_MODERATE,False,4.5,4613,0.6479,9,13,-4,41.430053,2.182705,1.0,5,0.6479,1.0,1.0,0.08014692269024828
ChIJN8BPCtS8pBIRLVrqY7W0Ycs,Antonia’s Burger X Cyclic Beer Farm,Sant Andreu,burger,,False,4.7,233,0.9982,4,7,-3,41.424403,2.189167,0.8,5,0.9982,1.0,0.12599213092041275,0.5755733606201628
ChIJHZoT2bajpBIRozqIbtk_0rY,Frankfurt Sant Andreu,Sant Andreu,burger,,False,4.8,116,1.1419,3,2,1,41.397599,2.180797,1.0,5,1.1419,0.9044768128614376,0.6187154182234634,
ChIJTQInjrGPpBIRwjfWGM-dWjE,TITI Burger Bar,Sant Andreu,burger,,False,4.3,115,1.0774,14,6,8,41.4492,1.967859,0.8,5,1.0774,0.8868901609813914,0.3716692858036824,0.7000000000000001
ChIJ67ACIWq9pBIR5R0KX0H9SSo,VICIO Sant Andreu | Takeaway & Delivery,Sant Andreu,burger,PRICE_LEVEL_MODERATE,False,4.3,738,0.9625,13,9,4,41.440629,2.189204,0.6,5,0.9625,-1.0,,
ChIJZZxHAw-jpBIRaw9ZoauKFEc,Smash House Burger,Sant Andreu,burger,,False,4.7,536,1.1087,5,4,1,41.411063,2.182466,1.0,5,1.1087,0.6207877561485282,0.08366122128979958,0.5
ChIJ6wVTgde8pBIRRBFFW9ohtOk,Livingstone,Sant Andreu,burger,PRICE_LEVEL_INEXPENSIVE,False,4.1,1553,0.6547,15,12,3,41.430388,2.186411,0.8,5,0.6547,0.6999999999999998,0.8,0.7
ChIJiSPXvam9pBIRmSDekovgD5Y,Hamburgueseria Goiko,Sant Andreu,burger,PRICE_LEVEL_MODERATE,False,4.7,5206,0.6625,6,11,-5,41.423088,2.1786,1.0,5,0.6625,-0.7198118915398689,-0.5,-0.7000000000000001
ChIJRZwaxte8pBIRcwJo9F8xkuY,PHO Restaurant Ramen,Sant Andreu,ramen,PRICE_LEVEL_INEXPENSIVE,False,4.2,359,0.9991,3,3,0,41.428401,2.185872,1.0,5,0.9991,0.4142967611825781,0.6766224261005573,1.0
ChIJ86wNbGu9pBIRKN-6QwnERoU,Wok&ramen house,Sant Andreu,ramen,,False,4.3,62,1.0526,2,1,1,41.43133,2.193079,1.0,5,1.0526,1.0,0.4630268719916653,1.0
ChIJoRJsdQC9pBIR_ffGx_IWgUM,Buga Ramen | Nou Barris,Sant Andreu,ramen,PRICE_LEVEL_MODERATE,False,4.6,514,1.0526,1,2,-1,41.438839,2.17526,1.0,5,1.0526,1.0,1.0,1.0
ChIJcy57WgC9pBIRMGZuw8nKHRs,Ox Lan Beef Noodle - 牛蘭仙牛肉面 - Restaurante de Noodles Chinos Barcelona,Sant Andreu,ramen,,False,3.9,201,0.6869,4,4,0,41.43029,2.18448,0.8,5,0.6869,-0.24351521994142686,1.0,1.0
ChIJWbIfBdy8pBIRjIK6_E8N1jk,Marilyn Restaurant Cocteleria,Sant Andreu,paella,PRICE_LEVEL_MODERATE,False,4.3,1326,0.8485,1,1,0,41.434945,2.189698,0.8,5,0.8485,0.9889235956683187,0.9762983449934846,0.5
ChIJGQZFklO9pBIR1emWHxiytQ0,Fogón del Castellano y Leonés,Sant Andreu,paella,PRICE_LEVEL_MODERATE,False,3.9,463,0.5406,4,2,2,41.44393,2.190364,1.0,5,0.5406,0.6109690754387629,0.546950224385623,0.43265721865820045
ChIJe6daOjC9pBIROFh3bK5A2xI,La Terrassa de Mercadal,Sant Andreu,paella,PRICE_LEVEL_MODERATE,False,4.0,637,0.3925,2,3,-1,41.434862,2.18863,1.0,5,0.3925,0.02685848978476935,0.4452704314490276,0.5452534320568228
ChIJj6dSvn29pBIRtJ-cq4ukIEc,LeChamp,Sant Andreu,paella,PRICE_LEVEL_INEXPENSIVE,False,4.0,760,0.3248,3,4,-1,41.437233,2.191393,1.0,5,0.3248,0.30684880760149075,0.3736604150885549,0.23561741399343816
ChIJh4FI6GGjpBIRzDfnG99gVvs,Dunk n Dips,Sant Andreu,brunch,,False,5.0,68,0.8393,1,6,-5,41.418009,2.185285,0.8,5,0.8393,0.8499968166376733,0.8500891466205227,
ChIJj7ovjl6jpBIRxB21A5H_rQE,My Friend Coffee Brunch Halal,Sant Andreu,brunch,,False,4.9,356,0.857,2,4,-2,41.405966,2.172209,1.0,5,0.857,0.9587693062584071,0.6503639887424222,
ChIJ14_UKdq8pBIRtJBOnlM_GMg,Several cafè,Sant Andreu,brunch,PRICE_LEVEL_MODERATE,False,4.6,2061,0.8209,8,7,1,41.432571,2.189174,1.0,5,0.8209,0.7027343195817981,0.7651022746514176,
ChIJm7ogiJyjpBIRFt5bxoHIYX4,Café Rio,Sant Andreu,brunch,,False,4.9,137,0.8517,3,5,-2,41.408201,2.169378,1.0,5,0.8517,0.8556434577022005,0.7766647270705523,0.8
ChIJ_zFTVgCjpBIRPJB_MN1Rt4U,Bloome by Sasha,Sant Andreu,brunch,,False,4.8,3135,0.8805,4,2,2,41.407412,2.174226,1.0,5,0.8805,0.7,0.7211134480144018,
ChIJjao6JNq8pBIRx5kqQKOsteA,Aromes Sant Andreu,Sant Andreu,brunch,PRICE_LEVEL_MODERATE,False,4.2,1237,0.2542,10,10,0,41.432116,2.189415,0.8,5,0.2542,0.6647441436401178,-0.19218937778197634,
ChIJGSlyM8ajpBIRHt12uun5A3E,"Wake | Brunch, Specialty Coffee",Sant Andreu,brunch,,False,4.7,647,0.8696,5,3,2,41.407489,2.180538,1.0,5,0.8696,1.0,1.0,0.8140591505316205
ChIJMfEis-CipBIRTwj_y1yzGg0,Lilo Esmorzars Barcelona | Sagrada Família,Sant Andreu,brunch,PRICE_LEVEL_MODERATE,False,4.7,5495,0.7419,6,8,-2,41.399845,2.179484,1.0,5,0.7419,1.0,1.0,
ChIJ5USy0jmjpBIRwyyGx1QN0-g,Food O'clock,Sant Andreu,brunch,,False,4.6,270,0.6507,9,9,0,41.408389,2.171657,1.0,5,0.6507,0.6452385535798414,0.5862177361729288,0.5
ChIJn773in29pBIRU20WyDVR0tA,Olas Brunch & Coffee,Sant Andreu,brunch,,False,4.7,68,0.9394,7,1,6,41.43046,2.182407,1.0,5,0.9394,1.0,1.0,1.0
ChIJwyb29iujpBIRbOhvqRmk36Q,Sagradas Tapas,Eixample,tapas,PRICE_LEVEL_MODERATE,,4.7,11993,0.9536,11,3,8,41.408516,2.174511,1.0,5,0.9536,0.6790372181990618,1.0,1.0
ChIJOz6kWZGipBIR-dPpNFs_4LY,Vivo Tapas,Eixample,tapas,PRICE_LEVEL_MODERATE,,4.8,23639,0.8469,4,5,-1,41.395166,2.159628,1.0,5,0.8469,0.6798350133020974,0.1816714315150181,
ChIJB49_ZP-jpBIRSuvez4kvxUo,Secret tapes,Eixample,tapas,,,4.9,2267,0.9536,1,1,0,41.394588,2.15383,1.0,5,0.9536,1.0,1.0,1.0
ChIJf8Zst1-jpBIRkov6YZvFOpY,Local Tapas,Eixample,tapas,,,4.7,10232,0.9536,10,2,8,41.387623,2.160211,1.0,5,0.9536,0.6226128817400947,0.29077482062757465,0.5
ChIJ2Z6YFB2jpBIR79U7YFJZoWw,LOKAL BAR,Eixample,tapas,PRICE_LEVEL_MODERATE,,4.7,2804,0.8458,5,6,-1,41.396332,2.167225,1.0,5,0.8458,0.8603465465120465,1.0,0.5
ChIJ_0MAT42ipBIRzRp5sSdFQL4,2254 Barcelona Restaurant,Eixample,tapas,PRICE_LEVEL_MODERATE,,4.7,8257,0.3219,9,15,-6,41.390125,2.164202,1.0,5,0.3219,0.3118816559084614,1.0,-1.0
ChIJXdpIB8ejpBIRiN8FofL57VA,Bar Eixample,Eixample,tapas,,,4.7,706,0.815,8,8,0,41.391431,2.152381,1.0,5,0.815,0.9176278102110619,0.5778933612254159,0.7
ChIJ21Q6JDOjpBIR-nh2cxLHR_M,Faire - Tapas & Wine,Eixample,tapas,,,4.8,946,0.7276,3,12,-9,41.395166,2.1705,1.0,5,0.7276,0.7144496177023041,0.5150150047789845,
ChIJKX63WxqjpBIRL0vPBgPHlpA,GiGi von tapas,Eixample,tapas,PRICE_LEVEL_MODERATE,,4.7,3882,0.6626,6,14,-8,41.400139,2.179465,1.0,5,0.6626,0.8748051111490798,0.5,0.699126372024008
ChIJs9BCkNejpBIRlkboD_gXYzc,Corte de Manga l Restaurante de Tapas Barcelona,Eixample,tapas,,,4.6,562,0.831,12,7,5,41.383997,2.156548,0.8,5,0.831,0.2515817322818343,0.7100504600803668,
ChIJbUeDbIyipBIRhf2n9OIXpig,La Flauta | Aribau,Eixample,tapas,PRICE_LEVEL_MODERATE,,4.5,13035,0.1601,15,16,-1,41.38686,2.161064,0.8,5,0.1601,0.28924763389284686,,-0.12301072952644261
ChIJg59zG92jpBIRXC2rmGX6OLY,La Candelaria Tapas Bar Barcelona,Eixample,tapas,,,4.9,80,0.9146,2,4,-2,41.395708,2.170238,1.0,5,0.9146,0.8829445898099714,0.8502520669810596,
ChIJSR2zmsCjpBIRt1mMQLtYfho,BORO Bar,Eixample,tapas,PRICE_LEVEL_MODERATE,,4.7,2372,0.7709,7,11,-4,41.392511,2.170044,1.0,5,0.7709,0.7820805207904739,0.6241255558566715,-0.2
ChIJ3XUCr0K5Z0ARbKq1CqAKgJQ,Vinitus,Eixample,tapas,PRICE_LEVEL_MODERATE,,4.5,17199,0.6793,13,13,0,41.390026,2.164048,1.0,5,0.6793,0.6749454214968759,0.6066021299397061,0.6
ChIJhytlk2ejpBIR0zmFsuskZnw,Season Tapas Restaurant,Eixample,tapas,PRICE_LEVEL_MODERATE,,4.4,2608,0.8077,16,10,6,41.391354,2.155212,0.8,5,0.8077,0.8486267597542033,0.7000000000000001,
ChIJ7SbGR5ajpBIRBm3yYxlYIWM,Bar Anita,Eixample,tapas,PRICE_LEVEL_MODERATE,,4.5,5535,0.8124,14,9,5,41.395757,2.171581,1.0,5,0.8124,0.8421495059304673,,0.20883639133183576
ChIJpXuzyuKjpBIRtRtH7c0QV3w,YOI SHOKU,Eixample,japanese,,,4.8,139,1.0755,4,3,1,41.396079,2.17481,1.0,5,1.0755,0.9357213017902826,0.6293546199815654,-0.4000000000000001
ChIJ2_i2C-ujpBIRi-CG3d8yg2U,SUN TAKA,Eixample,japanese,PRICE_LEVEL_MODERATE,,4.6,937,0.5809,8,10,-2,41.397386,2.165867,1.0,5,0.5809,0.23026219884060242,1.0,
ChIJz4Sej-qipBIRIkPS2hedl7M,Aiueno,Eixample,japanese,PRICE_LEVEL_MODERATE,,4.6,1194,1.095,13,1,12,41.400213,2.166656,1.0,5,1.095,1.0,0.7455982699546883,0.7761093078869948
ChIJffd6zvGjpBIRWUQMkf7TFdc,KIWAMI,Eixample,japanese,PRICE_LEVEL_MODERATE,,4.8,565,0.9851,3,4,-1,41.407035,2.17823,1.0,5,0.9851,1.0,0.5639972034141535,
ChIJQSB4GI6ipBIR0owzy0TgXoY,Robata,Eixample,japanese,PRICE_LEVEL_EXPENSIVE,,4.6,8926,0.5424,11,11,0,41.390463,2.158426,1.0,5,0.5424,0.6851330636683438,-0.006426061342346598,
ChIJpQgpLmOjpBIRv1xWkIPzT7I,Hakone Eixample,Eixample,japanese,,,4.7,520,0.2696,7,12,-5,41.388657,2.158338,1.0,5,0.2696,0.7735887288015034,-0.12068876754250477,0.0
ChIJURnDMyujpBIR5UEoA1aVmos,Yamato BBQ Barcelona,Eixample,japanese,,,4.8,1126,0.8429,2,6,-4,41.402763,2.177048,1.0,5,0.8429,0.7768099134229763,0.5479565135857769,0.6999999999999998
ChIJpTPXIj2jpBIRBvoJokYVZW8,Akiro Hand Roll Bar,Eixample,japanese,,,4.9,5145,1.0755,1,2,-1,41.392146,2.159951,1.0,5,1.0755,0.950982002462148,,
ChIJwaqxIuyipBIR_X_o_CfX_VE,sato i tanaka,Eixample,japanese,PRICE_LEVEL_EXPENSIVE,,4.8,1113,0.8141,5,8,-3,41.394546,2.168949,1.0,5,0.8141,0.03882047055835498,1.0,-0.532513460859729
ChIJ7Qxu3lijpBIRMWBzw8lyJRY,Takkoshu | Takko Japonés & Anime | Restaurante Japonesa,Eixample,japanese,,,4.6,515,0.2517,9,13,-4,41.386346,2.161423,0.8,5,0.2517,0.19462634441840837,-0.01668374533136617,0.3728850539084074
ChIJ916E1gKjpBIR7w5AXHmpfr0,Hiraya,Eixample,japanese,,,4.7,589,0.8835,6,5,1,41.396279,2.182001,1.0,5,0.8835,0.8937369653273518,-0.33388756783736934,0.5
ChIJ7YtbDgCjpBIR1CyU-o_eB-M,Kasa Japo,Eixample,japanese,,,4.6,111,0.7949,10,9,1,41.39748,2.160411,1.0,5,0.7949,0.7471891560835748,,-0.3
ChIJj-ZMHaCjpBIREJ5-IHP5TnA,Keanu Izakaya Bar,Eixample,japanese,,,4.6,534,0.8213,12,7,5,41.394548,2.154173,1.0,5,0.8213,0.9499715349891135,0.5552472248245138,-0.5
ChIJKUfQiX6jpBIRtAqpF9B0ey8,Anema E Core,Eixample,italian,PRICE_LEVEL_MODERATE,,4.8,2211,0.8502,4,7,-3,41.392973,2.156732,1.0,5,0.8502,0.9470870835000388,0.6465812241773781,
ChIJ7YU7Fn6jpBIRE-ur8uBlBrg,Gloria Osteria Barcelona,Eixample,italian,,,4.8,10331,0.8714,1,6,-5,41.392987,2.155905,1.0,5,0.8714,0.9392930375054053,0.8795037860477192,
ChIJs3edLP6jpBIRBriM7w2-SOQ,Ostaia - Eixample | Osteria Genovese,Eixample,italian,PRICE_LEVEL_MODERATE,,4.7,1499,0.8216,10,8,2,41.388584,2.159473,1.0,5,0.8216,0.7814089299083855,0.567804589564171,-0.2076687775999043
ChIJH7b8ejCjpBIRYJkeuZTaXbM,Ana's - Restaurante italiano en Barcelona & Cocktail Bar,Eixample,italian,,,4.7,559,0.1803,6,14,-8,41.390906,2.167522,1.0,5,0.1803,0.4545445046906443,0.7,-0.8457249190739599
ChIJlWor8tyipBIRW6Svhmt1Z28,Tuscania Mediterranean Food & Wine - Sagrada Familia,Eixample,italian,PRICE_LEVEL_MODERATE,,4.7,5092,0.5669,9,12,-3,41.404117,2.176508,1.0,5,0.5669,0.6269648201116561,1.0,1.0
ChIJuwsi6-2ipBIRi8zh5nFfS_Q,Musiu | Restaurante Italiano Barcelona,Eixample,italian,PRICE_LEVEL_INEXPENSIVE,,4.6,2395,0.5772,13,11,2,41.391936,2.168432,1.0,5,0.5772,0.3906976257820266,0.5898093935264426,
ChIJefmo1-2ipBIRBr5cUyZ1Qt0,Luigi Ristorante - Roger de Llúria,Eixample,italian,PRICE_LEVEL_MODERATE,,4.4,7085,0.5626,14,13,1,41.392837,2.169443,1.0,5,0.5626,0.5829586799277411,0.7579360835137958,0.8
ChIJEVY1z4ijpBIRrBkEBmHJgTs,Feva,Eixample,italian,,,4.8,332,0.9313,3,1,2,41.397859,2.184146,1.0,5,0.9313,1.0,1.0,
ChIJ_bT7uQGjpBIRMNB36-WjcVw,Don Kilo Restaurant italià,Eixample,italian,PRICE_LEVEL_MODERATE,,4.7,10582,0.9313,8,2,6,41.397897,2.166907,1.0,5,0.9313,1.0,1.0,
ChIJY2eOTRijpBIR6AySFNYrMns,RUA Taverna Gastronòmica,Eixample,italian,,,4.8,545,0.8785,5,5,0,41.390301,2.157169,1.0,5,0.8785,1.0,1.0,1.0
ChIJU4u6ZoSipBIRweDTPlRgN4A,Gusto Restaurant,Eixample,italian,PRICE_LEVEL_MODERATE,,4.7,12705,0.8857,7,4,3,41.388324,2.150894,1.0,5,0.8857,0.7266148342016115,0.09910497349427916,-0.4349441689603662
ChIJRRghH6SjpBIRl8uWlAU3Fk4,IT - Italian Trattoria,Eixample,italian,,,4.6,3919,0.7946,12,9,3,41.387204,2.167634,1.0,5,0.7946,0.8378677399975911,0.3699143113102018,1.0
ChIJwzCDVBWjpBIR_jqe7zSk358,Algrano Bistro | Eixample,Eixample,italian,,,4.7,180,0.9313,11,3,8,41.392967,2.175108,0.8,5,0.9313,1.0,1.0,1.0
ChIJC5HEXACjpBIRS3tdYdkxRy8,Mizzica de Enric Granados | Restaurante Italiano Barcelona,Eixample,italian,,,4.8,4568,0.6148,2,10,-8,41.3876,2.162247,1.0,5,0.6148,0.8643114074399298,1.0,
ChIJh96cvCajpBIRcB9a-915edU,MERCADER EIXAMPLE | Restaurant Barcelona,Eixample,catalan,,,4.7,118,0.9405,9,3,6,41.39233,2.160347,1.0,5,0.9405,1.0,0.900533421234591,
